[
  {
    "id": "deb79afd27da",
    "name": "OSPEDALE UMBERTO I",
    "address": "Italia ABRUZZO 67069 TAGLIACOZZO Via Variante Tiburtina Valeria AQ",
    "city": "TAGLIACOZZO",
    "province": "AQ",
    "region": "ABRUZZO",
    "phone": "0863 699279/282",
    "email": "svecchiotti@asl1abruzzo.it",
    "lat": 42.0975299,
    "lng": 13.1586203,
    "geocode_status": "OK"
  },
  {
    "id": "465f5a164762",
    "name": "CENTRO DIALISI VILLA ROSA",
    "address": "Italia ABRUZZO 64014 VILLA ROSA Via Amendola 2 TE",
    "city": "VILLA ROSA",
    "province": "TE",
    "region": "ABRUZZO",
    "phone": "0861 757004",
    "email": "dialisivillarosa@virgilio.it",
    "lat": 42.8547771,
    "lng": 13.922525,
    "geocode_status": "OK"
  },
  {
    "id": "c30bb29b5644",
    "name": "OSPEDALE G. MAZZINI",
    "address": "Italia ABRUZZO 64100 TERAMO Piazza Italia 1 TE",
    "city": "TERAMO",
    "province": "TE",
    "region": "ABRUZZO",
    "phone": "0861 429749/745/746",
    "email": null,
    "lat": 42.6655515,
    "lng": 13.7138712,
    "geocode_status": "OK"
  },
  {
    "id": "4f7e1c9d91b0",
    "name": "OSPEDALE SS ANNUNZIATA",
    "address": "Italia ABRUZZO 67039 SULMONA Viale  Mazzini 100 AQ",
    "city": "SULMONA",
    "province": "AQ",
    "region": "ABRUZZO",
    "phone": "0864 499360/357/358/361",
    "email": "pcerasoli@asl1abruzzo.it",
    "lat": 42.0380754,
    "lng": 13.9318015,
    "geocode_status": "OK"
  },
  {
    "id": "5b6c1166ac85",
    "name": "PRESIDIO OSPEDALIERO  SS. TRINITÀ",
    "address": "Italia ABRUZZO 65026 POPOLI Via Enrico Berlinguer 118 PE",
    "city": "POPOLI",
    "province": "PE",
    "region": "ABRUZZO",
    "phone": "085 9898214/225",
    "email": "nefrodialisi.popoli@ausl.pe.it",
    "lat": 42.1762413,
    "lng": 13.8272279,
    "geocode_status": "OK"
  },
  {
    "id": "dd8b40714d28",
    "name": "OSPEDALE SPIRITO SANTO",
    "address": "Italia ABRUZZO 65124 PESCARA Via Fonte Romana 8 PE",
    "city": "PESCARA",
    "province": "PE",
    "region": "ABRUZZO",
    "phone": "085 4252437/2669",
    "email": "mario.campanella@ausl.pe.it",
    "lat": 42.4639532,
    "lng": 14.1989466,
    "geocode_status": "OK"
  },
  {
    "id": "7f68c0c0da6f",
    "name": "OSPEDALE SPIRITO SANTO",
    "address": "Italia ABRUZZO 65124 PESCARA Via Fonte Romana,8 PE",
    "city": "PESCARA",
    "province": "PE",
    "region": "ABRUZZO",
    "phone": "085 4252511/09/2358",
    "email": "mario.campanella@ausl.pe.it",
    "lat": 42.4639532,
    "lng": 14.1989466,
    "geocode_status": "OK"
  },
  {
    "id": "7a6f1af3bb68",
    "name": "OSPEDALE CIVILE S. MASSIMO",
    "address": "Italia ABRUZZO 65017 PENNE Via Battaglione Alpini 2 PE",
    "city": "PENNE",
    "province": "PE",
    "region": "ABRUZZO",
    "phone": "085 8276241/6349/6375",
    "email": "danilo.dettorre@ausl.pe.it",
    "lat": 42.3535397,
    "lng": 13.4700262,
    "geocode_status": "OK"
  },
  {
    "id": "6471598388de",
    "name": "OSPEDALE G. BERNABEO",
    "address": "Italia ABRUZZO 66026 ORTONA Contrada Santa Liberata 1 CH",
    "city": "ORTONA",
    "province": "CH",
    "region": "ABRUZZO",
    "phone": "085 9172312/2209/2311",
    "email": "stingant@libero.it",
    "lat": 42.3430239,
    "lng": 14.377796,
    "geocode_status": "OK"
  },
  {
    "id": "0479039dd507",
    "name": "OSPEDALE SAN SALVATORE",
    "address": "Italia ABRUZZO 67010 L'AQUILA - COPPITO Via Vetoio - Localita' Coppito AQ",
    "city": "L'AQUILA - COPPITO",
    "province": "AQ",
    "region": "ABRUZZO",
    "phone": "0862 368254",
    "email": "centrotrapianti@asl1abruzzo.it",
    "lat": 42.3676064,
    "lng": 13.3504831,
    "geocode_status": "OK"
  },
  {
    "id": "b1254ed8bfc3",
    "name": "OSPEDALE \"SAN SALVATORE\"",
    "address": "Italia ABRUZZO 67100 L'AQUILA via Lorenzo Natali 1 - Località Coppito AQ",
    "city": "L'AQUILA",
    "province": "AQ",
    "region": "ABRUZZO",
    "phone": "0862 368745/328",
    "email": "tunnofabiana@libero.it",
    "lat": 42.3644712,
    "lng": 13.3527488,
    "geocode_status": "OK"
  },
  {
    "id": "3069f15d4a56",
    "name": "OSPEDALE RENZETTI",
    "address": "Italia ABRUZZO 66034 LANCIANO Via Del Mare 1 CH",
    "city": "LANCIANO",
    "province": "CH",
    "region": "ABRUZZO",
    "phone": "0872 706203/214/297",
    "email": "nefrologia.lanciano@asl2abruzzo.it",
    "lat": 42.23079509999999,
    "lng": 14.3978212,
    "geocode_status": "OK"
  },
  {
    "id": "2aa8ea468909",
    "name": "OSPEDALE MARIA SS IMMACOLATA",
    "address": "Italia ABRUZZO 66016 GUARDIAGRELE Via Anello, 6 CH",
    "city": "GUARDIAGRELE",
    "province": "CH",
    "region": "ABRUZZO",
    "phone": "0871 899269/238",
    "email": "nefrologia.ortona@asl2abruzzo.it",
    "lat": 42.1974901,
    "lng": 14.2187035,
    "geocode_status": "OK"
  },
  {
    "id": "531f14499a68",
    "name": "PRESIDIO OSPEDALIERO SS MARIA DELLO SPLENDORE",
    "address": "Italia ABRUZZO 64021 GIULIANOVA Via Gramsci 105 TE",
    "city": "GIULIANOVA",
    "province": "TE",
    "region": "ABRUZZO",
    "phone": "085 8020447/448/450/219",
    "email": "rita.santucci@aslteramo.it",
    "lat": 42.7440866,
    "lng": 13.9643621,
    "geocode_status": "OK"
  },
  {
    "id": "a2f518d287a8",
    "name": "OSPEDALE SAN PIO DA PIETRELCINA",
    "address": "Italia ABRUZZO 66054 VASTO Via San Camillo De' Lellis CH",
    "city": "VASTO",
    "province": "CH",
    "region": "ABRUZZO",
    "phone": "0873 308221/381/380",
    "email": "brunodipaolo1@virgilio.it",
    "lat": 42.1182804,
    "lng": 14.7101902,
    "geocode_status": "OK"
  },
  {
    "id": "3a8706818646",
    "name": "OSPEDALE SAN LIBERATORE",
    "address": "Italia ABRUZZO 64032 ATRI Via Risorgimento TE",
    "city": "ATRI",
    "province": "TE",
    "region": "ABRUZZO",
    "phone": "085 8707357/480",
    "email": "ermanno.diloreto@aslteramo.it",
    "lat": 42.5780664,
    "lng": 13.9869653,
    "geocode_status": "OK"
  },
  {
    "id": "176223dfc944",
    "name": "CENTRO DIALISI SPINDIAL",
    "address": "Italia ABRUZZO 66023 FRANCAVILLA AL MARE Piazza Porta Ripa 1 CH",
    "city": "FRANCAVILLA AL MARE",
    "province": "CH",
    "region": "ABRUZZO",
    "phone": "085 4917109",
    "email": "francavilla@spindial.com",
    "lat": 42.4168022,
    "lng": 14.2918364,
    "geocode_status": "OK"
  },
  {
    "id": "1ca13b783800",
    "name": "OSPEDALE SANTI FILIPPO E NICOLA",
    "address": "Italia ABRUZZO 67051 AVEZZANO Via G. Di Vittorio AQ",
    "city": "AVEZZANO",
    "province": "AQ",
    "region": "ABRUZZO",
    "phone": "0863 499374/432",
    "email": "svecchiotti@asl1abruzzo.it",
    "lat": 42.0530388,
    "lng": 13.4213912,
    "geocode_status": "OK"
  },
  {
    "id": "c4268ea566b8",
    "name": "OSPEDALE G. CONSALVI",
    "address": "Italia ABRUZZO 66043 CASOLI Via Aventino 25 CH",
    "city": "CASOLI",
    "province": "CH",
    "region": "ABRUZZO",
    "phone": "0872 989241/242/248",
    "email": "serviziodialisicasoli@virgilio.it",
    "lat": 42.1181118,
    "lng": 14.2938328,
    "geocode_status": "OK"
  },
  {
    "id": "9270b1b05b00",
    "name": "OSPEDALE \"SAN CAMILLO DE LELLIS\"",
    "address": "Italia ABRUZZO 66041 ATESSA Via Antonio Gramsci CH",
    "city": "ATESSA",
    "province": "CH",
    "region": "ABRUZZO",
    "phone": "0872 864237/417",
    "email": "car.suriani@gmail.com",
    "lat": 42.0744358,
    "lng": 14.4465602,
    "geocode_status": "OK"
  },
  {
    "id": "a64eb87717e4",
    "name": "OSPEDALE  SS . ANNUNZIATA",
    "address": "Italia ABRUZZO 66100 CHIETI Via Dei Vestini CH",
    "city": "CHIETI",
    "province": "CH",
    "region": "ABRUZZO",
    "phone": "0871 358634/657",
    "email": "mario.bonomini@unich.it",
    "lat": 42.3657684,
    "lng": 14.1526342,
    "geocode_status": "OK"
  },
  {
    "id": "3e98d1f93000",
    "name": "OSPEDALE CIVILE",
    "address": "Italia ABRUZZO 67031 CASTEL DI SANGRO Via La Croce AQ",
    "city": "CASTEL DI SANGRO",
    "province": "AQ",
    "region": "ABRUZZO",
    "phone": "0864 899232",
    "email": "calemodialisicds@asl1abruzzo.it",
    "lat": 41.7760135,
    "lng": 14.1164288,
    "geocode_status": "OK"
  },
  {
    "id": "a522cc0b4da8",
    "name": "OSPEDALE MADONNA DELLE GRAZIE",
    "address": "Italia BASILICATA 75100 MATERA Contrada Cattedra Ambulante MT",
    "city": "MATERA",
    "province": "MT",
    "region": "BASILICATA",
    "phone": "0835 253312/26 - 0835 253839",
    "email": "giovanni.santarsia@asmbasilicata.it",
    "lat": 40.6533971,
    "lng": 16.6115395,
    "geocode_status": "OK"
  },
  {
    "id": "9ab23df3600a",
    "name": "AZIENDA OSPEDALIERA SAN CARLO",
    "address": "Italia BASILICATA 85100 POTENZA Via Potito Petrone - C.da Macchia Romana PZ",
    "city": "POTENZA",
    "province": "PZ",
    "region": "BASILICATA",
    "phone": "0971 613242-0971 612288",
    "email": "giorgio.ferlan@ospedalesancarlo.it",
    "lat": 40.6637322,
    "lng": 15.8105555,
    "geocode_status": "OK"
  },
  {
    "id": "a3985463fc5b",
    "name": "OSPEDALE GIOVANNI DE LIETO",
    "address": "Italia BASILICATA 85046 MARATEA Via San Nicola 2 PZ",
    "city": "MARATEA",
    "province": "PZ",
    "region": "BASILICATA",
    "phone": "0973 875683/682",
    "email": "gennaro.sansone60@gmail.com",
    "lat": 39.99679,
    "lng": 15.719587,
    "geocode_status": "OK"
  },
  {
    "id": "4de7474ce5d3",
    "name": "AMBULATORIO NEFROLOGIA DIALISI SM2",
    "address": "Italia BASILICATA 85100 POTENZA Via Zeno Colo' 84- C.da Macchia Romana PZ",
    "city": "POTENZA",
    "province": "PZ",
    "region": "BASILICATA",
    "phone": "0971 442764",
    "email": "ambulatoriosm2@gmail.com",
    "lat": 40.6590695,
    "lng": 15.8012481,
    "geocode_status": "OK"
  },
  {
    "id": "cc4a962b6e52",
    "name": "CENTRO DI RIFERIMENTO ONCOLOGICO BASILICATA",
    "address": "Italia BASILICATA 85028 RIONERO IN VULTURE Via Padre Pio 1 PZ",
    "city": "RIONERO IN VULTURE",
    "province": "PZ",
    "region": "BASILICATA",
    "phone": "0972 726274/271",
    "email": "giovanni.plastino@crob.it",
    "lat": 40.9310438,
    "lng": 15.6751477,
    "geocode_status": "OK"
  },
  {
    "id": "c54a7ad54f19",
    "name": "PRESIDIO OSPEDALIERO",
    "address": "Italia BASILICATA 85054 MURO LUCANO Via San Biagio 116 PZ",
    "city": "MURO LUCANO",
    "province": "PZ",
    "region": "BASILICATA",
    "phone": "0976 2079",
    "email": null,
    "lat": 40.7546408,
    "lng": 15.4937453,
    "geocode_status": "OK"
  },
  {
    "id": "3e2434df9825",
    "name": "OSPEDALE SAN FRANCESCO",
    "address": "Italia BASILICATA 85029 VENOSA Via Appia 68 PZ",
    "city": "VENOSA",
    "province": "PZ",
    "region": "BASILICATA",
    "phone": "0972 39364/366",
    "email": "giovanni.carretta@aspbasilicata.it",
    "lat": 40.9597761,
    "lng": 15.80933,
    "geocode_status": "OK"
  },
  {
    "id": "f6d34bde4c0e",
    "name": "PRESIDIO OSPEDALIERO",
    "address": "Italia BASILICATA 85050 VILLA D'AGRI Via Provinciale per Marsicovetere PZ",
    "city": "VILLA D'AGRI",
    "province": "PZ",
    "region": "BASILICATA",
    "phone": "0975 312292/293",
    "email": null,
    "lat": 40.3563757,
    "lng": 15.8246582,
    "geocode_status": "OK"
  },
  {
    "id": "1ba5ff5985ba",
    "name": "OSPEDALE SAN GIOVANNI",
    "address": "Italia BASILICATA 85032 CHIAROMONTE Via C/da S. Lucia PZ",
    "city": "CHIAROMONTE",
    "province": "PZ",
    "region": "BASILICATA",
    "phone": "0973 641416/20",
    "email": "gennaro.sansone60@gmail.com",
    "lat": 40.1236985,
    "lng": 16.2154137,
    "geocode_status": "OK",
    "geocode_formatted": "85032 Chiaromonte PZ, Italy"
  },
  {
    "id": "1cfca71f8d52",
    "name": "AMBULATORIO NEFROLOGIA E DIALISI SM2",
    "address": "Italia BASILICATA 75025 POLICORO Viale Salerno MT",
    "city": "POLICORO",
    "province": "MT",
    "region": "BASILICATA",
    "phone": "0835 980523",
    "email": "sm2policoro@gmail.com",
    "lat": 40.2122157,
    "lng": 16.6725396,
    "geocode_status": "OK",
    "geocode_formatted": "Via S. Maurizio, 40, 75025 Policoro MT, Italy"
  },
  {
    "id": "03311fb41b57",
    "name": "OSPEDALE DOMENICO LENTINI",
    "address": "Italia BASILICATA 85045 LAURIA SUPERIORE Via XXV Aprile 2 PZ",
    "city": "LAURIA SUPERIORE",
    "province": "PZ",
    "region": "BASILICATA",
    "phone": "0973 621466/467",
    "email": "gennaro.sansone60@gmail.com",
    "lat": 40.0519188,
    "lng": 15.8387998,
    "geocode_status": "OK",
    "geocode_formatted": "Via 25 Aprile, 2, 85044 Lauria PZ, Italy"
  },
  {
    "id": "948e94762446",
    "name": "PRESIDIO OSPEDALIERO",
    "address": "Italia BASILICATA 75015 PISTICCI Viale Jonio MT",
    "city": "PISTICCI",
    "province": "MT",
    "region": "BASILICATA",
    "phone": "0835 586553/55",
    "email": "palma.carretta@asmbasilicata.it",
    "lat": 40.3607776,
    "lng": 16.8330449,
    "geocode_status": "OK",
    "geocode_formatted": "Viale Ionio, 75012 Lido di Metaponto MT, Italy"
  },
  {
    "id": "084edbd70c81",
    "name": "OSPEDALE SCILLESI D'AMERICA",
    "address": "Italia CALABRIA 89058 SCILLA Via Tripi Superiore RC",
    "city": "SCILLA",
    "province": "RC",
    "region": "CALABRIA",
    "phone": "0965 7909259",
    "email": "dialisicdsscilla@asprc.it",
    "lat": 38.250084,
    "lng": 15.7183165,
    "geocode_status": "OK",
    "geocode_formatted": "Via Tripi Inferiore, 89058 Scilla RC, Italy"
  },
  {
    "id": "5f0bed6279f5",
    "name": "AMBULATORIO ASP",
    "address": "Italia CALABRIA 88838 MESORACA Contrada Campizzi KR",
    "city": "MESORACA",
    "province": "KR",
    "region": "CALABRIA",
    "phone": "0962 498161",
    "email": "nefrodialisicrotone@asp.crotone.it",
    "lat": 39.089162,
    "lng": 16.7953157,
    "geocode_status": "OK",
    "geocode_formatted": "Via Campizzi, Mesoraca KR, Italy"
  },
  {
    "id": "7f6b9880754b",
    "name": "AMBULATORIO DIALISI EURO 2000",
    "address": "Italia CALABRIA 87036 MONTALTO UFFUGO Via Benedetto Croce 3 CS",
    "city": "MONTALTO UFFUGO",
    "province": "CS",
    "region": "CALABRIA",
    "phone": "0984 907022",
    "email": "montaltouffugo.clinics@fmc-ag.com",
    "lat": 39.4024667,
    "lng": 16.2386534,
    "geocode_status": "OK",
    "geocode_formatted": "Via Benedetto Croce, 3, 87046 Stazione Montalto-coretto CS, Italy"
  },
  {
    "id": "6ebf9d6e2035",
    "name": "PRESIDIO OSPEDALIERO",
    "address": "Italia CALABRIA 89844 NICOTERA Via Dell' Ospedale VV",
    "city": "NICOTERA",
    "province": "VV",
    "region": "CALABRIA",
    "phone": "0963 81668",
    "email": "emodial.nicotera@aslvv.it",
    "lat": 38.5541697,
    "lng": 15.9390894,
    "geocode_status": "OK",
    "geocode_formatted": "89844 Nicotera, Province of Vibo Valentia, Italy"
  },
  {
    "id": "149b2cd7e849",
    "name": "OSPEDALE F. PENTIMALLI",
    "address": "Italia CALABRIA 89015 PALMI Via Bruno Buozzi 101 RC",
    "city": "PALMI",
    "province": "RC",
    "region": "CALABRIA",
    "phone": "0966 418289/50/64/71",
    "email": "nefrodialisipalmi@asprc.it",
    "lat": 38.3614186,
    "lng": 15.8531691,
    "geocode_status": "OK",
    "geocode_formatted": "Via Bruno Buozzi, 101, 89015 Palmi RC, Italy"
  },
  {
    "id": "a8e6725ea992",
    "name": "OSPEDALE SAN FRANCESCO DA PAOLA",
    "address": "Italia CALABRIA 87027 PAOLA Via Promintesta 1 CS",
    "city": "PAOLA",
    "province": "CS",
    "region": "CALABRIA",
    "phone": "0982 581231",
    "email": "dialisi.paola@aspcs.it",
    "lat": 39.3540022,
    "lng": 16.0403583,
    "geocode_status": "OK",
    "geocode_formatted": "Via Promintesta, 87027 Paola CS, Italy"
  },
  {
    "id": "89c322d9c1af",
    "name": "PRESIDIO OSPEDALIERO",
    "address": "Italia CALABRIA 87028 PRAIA A MARE Localita' Santo Stefano CS",
    "city": "PRAIA A MARE",
    "province": "CS",
    "region": "CALABRIA",
    "phone": "0985 704250",
    "email": "dialisi.popraia@aspcs.it",
    "lat": 39.9201983,
    "lng": 15.7810151,
    "geocode_status": "OK",
    "geocode_formatted": "Localita Santo Stefano, 87028 Praia a Mare CS, Italy"
  },
  {
    "id": "a7470c1f971f",
    "name": "AZIENDA OSPEDALIERA MELACRINO-BIANCHI-MORELLI",
    "address": "Italia CALABRIA 89124 REGGIO CALABRIA Via Vallone Petrara RC",
    "city": "REGGIO CALABRIA",
    "province": "RC",
    "region": "CALABRIA",
    "phone": "0965 397022",
    "email": "francesca.mallamaci@libero.it",
    "lat": 38.1129603,
    "lng": 15.6615835,
    "geocode_status": "OK",
    "geocode_formatted": "Via Vallone Petrara, 89124 Reggio Calabria RC, Italy"
  },
  {
    "id": "389d9fa91d16",
    "name": "OSPEDALI RIUNITI BIANCHI - MELACRINO",
    "address": "Italia CALABRIA 89124 REGGIO CALABRIA Via Melacrino RC",
    "city": "REGGIO CALABRIA",
    "province": "RC",
    "region": "CALABRIA",
    "phone": "0965 397002",
    "email": "nefrologiarc@libero.it",
    "lat": 38.1131043,
    "lng": 15.6595057,
    "geocode_status": "OK",
    "geocode_formatted": "Via Giuseppe Melacrino, 21, 89124 Reggio di Calabria RC, Italy"
  },
  {
    "id": "c43f1707c26c",
    "name": "OSPEDALE N. GIANNETTASIO",
    "address": "Italia CALABRIA 87067 ROSSANO Salita Ospedale - Via Ippocrate CS",
    "city": "ROSSANO",
    "province": "CS",
    "region": "CALABRIA",
    "phone": "0983 517276/67",
    "email": "romano.musacchio@aspcs.it",
    "lat": 39.5780514,
    "lng": 16.6356957,
    "geocode_status": "OK",
    "geocode_formatted": "Salita Ospedale, 87067 Rossano CS, Italy"
  },
  {
    "id": "78b4307e57a3",
    "name": "OSPEDALE L. PASTEUR",
    "address": "Italia CALABRIA 87018 SAN MARCO ARGENTANO Via Belvedere 1 CS",
    "city": "SAN MARCO ARGENTANO",
    "province": "CS",
    "region": "CALABRIA",
    "phone": "0984 510233",
    "email": "dialisisanmarco@gmail.com",
    "lat": 39.5844911,
    "lng": 16.0706081,
    "geocode_status": "OK",
    "geocode_formatted": "Via Belvedere, 1, 87018 San Marco Argentano CS, Italy"
  },
  {
    "id": "b7cc18868d0b",
    "name": "OSPEDALE SAN BRUNO",
    "address": "Italia CALABRIA 89822 SERRA SAN BRUNO Via Alfonso Scrivo VV",
    "city": "SERRA SAN BRUNO",
    "province": "VV",
    "region": "CALABRIA",
    "phone": "0963 777072",
    "email": "dialisi-serra@aspvv.it",
    "lat": 38.5774095,
    "lng": 16.3206635,
    "geocode_status": "OK",
    "geocode_formatted": "Eliporto Ospedale San Bruno, 89822 Serra San Bruno VV, Italy"
  },
  {
    "id": "9ac46e4c51a2",
    "name": "PRESIDIO OSPEDALIERO",
    "address": "Italia CALABRIA 88068 SOVERATO Via Don Carlo De Cardona CZ",
    "city": "SOVERATO",
    "province": "CZ",
    "region": "CALABRIA",
    "phone": "0967 539288",
    "email": "dialisisov@gmail.com",
    "lat": 38.6909227,
    "lng": 16.5427224,
    "geocode_status": "OK",
    "geocode_formatted": "via Don Carlo De Cardona, 88068 Soverato CZ, Italy"
  },
  {
    "id": "ad40465848a7",
    "name": "POLIAMBULATORIO",
    "address": "Italia CALABRIA 88069 SQUILLACE Viale Damiano Assanti 60 CZ",
    "city": "SQUILLACE",
    "province": "CZ",
    "region": "CALABRIA",
    "phone": "0961 912516",
    "email": "dialisisquillace@gmail.com",
    "lat": 38.7827577,
    "lng": 16.5217596,
    "geocode_status": "OK",
    "geocode_formatted": "Via Damiano Assanti, 60, 88069 Squillace CZ, Italy"
  },
  {
    "id": "851ffb99e595",
    "name": "OSPEDALE G. CHIDICHIMO",
    "address": "Italia CALABRIA 87075 TREBISACCE Via Viccinelli 1 CS",
    "city": "TREBISACCE",
    "province": "CS",
    "region": "CALABRIA",
    "phone": "0981 509309",
    "email": "dialisitrebisacce@gmail.com",
    "lat": 39.8733789,
    "lng": 16.5364683,
    "geocode_status": "OK",
    "geocode_formatted": "Via Pierre e Marie Curie, 44, 87075 Trebisacce CS, Italy"
  },
  {
    "id": "600b222085d1",
    "name": "PRESIDIO OSPEDALIERO",
    "address": "Italia CALABRIA 89861 TROPEA Via Provinciale VV",
    "city": "TROPEA",
    "province": "VV",
    "region": "CALABRIA",
    "phone": "0963 962808",
    "email": "dialtrop@tiscali.it",
    "lat": 38.6345832,
    "lng": 15.8534161,
    "geocode_status": "OK",
    "geocode_formatted": "Via Provinciale, 89866 San Nicolò VV, Italy"
  },
  {
    "id": "dfaebdc583ce",
    "name": "OSPEDALE G. JAZZOLINO",
    "address": "Italia CALABRIA 89900 VIBO VALENTIA Piazza Fleming VV",
    "city": "VIBO VALENTIA",
    "province": "VV",
    "region": "CALABRIA",
    "phone": "0963 962257",
    "email": "ivania.figliano@libero.it",
    "lat": 38.6787218,
    "lng": 16.1032299,
    "geocode_status": "OK",
    "geocode_formatted": "Piazza Fleming, 89900 Vibo Valentia VV, Italy"
  },
  {
    "id": "a6fe139e5dc9",
    "name": "OSPEDALE CIVILE",
    "address": "Italia CALABRIA 88049 SOVERIA MANNELLI Viale Dei Pini CZ",
    "city": "SOVERIA MANNELLI",
    "province": "CZ",
    "region": "CALABRIA",
    "phone": "0968 666843",
    "email": "mauriziogr.gullo@virgilio.it",
    "lat": 39.0787711,
    "lng": 16.3813341,
    "geocode_status": "OK",
    "geocode_formatted": "S.da Statale 19 delle Calabrie, 88049 Soveria Mannelli CZ, Italy"
  },
  {
    "id": "0d84dd83786e",
    "name": "OSPEDALE T. EVOLI",
    "address": "Italia CALABRIA 89063 MELITO PORTO SALVO Corso Garibaldi 155 RC",
    "city": "MELITO PORTO SALVO",
    "province": "RC",
    "region": "CALABRIA",
    "phone": "0965 774120",
    "email": "nefromelito@asprc.it",
    "lat": 37.9172064,
    "lng": 15.7807677,
    "geocode_status": "OK",
    "geocode_formatted": "Viale Garibaldi, 155, 89063 Melito di Porto Salvo RC, Italy"
  },
  {
    "id": "fb5e30ce875a",
    "name": "PRESIDIO OSPEDALIERO",
    "address": "Italia CALABRIA 87055 SAN GIOVANNI IN FIORE Via Gramsci CS",
    "city": "SAN GIOVANNI IN FIORE",
    "province": "CS",
    "region": "CALABRIA",
    "phone": "0984 979295",
    "email": "anicoletti1958@libero.it",
    "lat": 39.2511537,
    "lng": 16.6959166,
    "geocode_status": "OK",
    "geocode_formatted": "Via A.Gramsci, 87055 San Giovanni in Fiore CS, Italy"
  },
  {
    "id": "e4910372bd41",
    "name": "OSPEDALE FERRARI",
    "address": "Italia CALABRIA 87012 CASTROVILLARI Viale Del Lavoro CS",
    "city": "CASTROVILLARI",
    "province": "CS",
    "region": "CALABRIA",
    "phone": "0981 485245",
    "email": "dialisicv@aspcs.it",
    "lat": 39.8176312,
    "lng": 16.2133881,
    "geocode_status": "OK",
    "geocode_formatted": "Viale del Lavoro, 87012 Castrovillari CS, Italy"
  },
  {
    "id": "4c2e3aceed33",
    "name": "PRESIDIO OSPEDALIERO",
    "address": "Italia CALABRIA 87010 LUNGRO Contrada San Leonardo 54 CS",
    "city": "LUNGRO",
    "province": "CS",
    "region": "CALABRIA",
    "phone": "0981 942161",
    "email": "dialisilungro@gmail.com",
    "lat": 39.7284537,
    "lng": 16.1427105,
    "geocode_status": "OK",
    "geocode_formatted": "Contrada S. Leonardo, 54, 87010 Lungro CS, Italy"
  },
  {
    "id": "1400900eb5e2",
    "name": "OSPEDALE PRINCIPESSA DI PIEMONTE",
    "address": "Italia CALABRIA 89029 TAURIANOVA Largo Ospedale RC",
    "city": "TAURIANOVA",
    "province": "RC",
    "region": "CALABRIA",
    "phone": "0966 613226",
    "email": "dialisitaurianova.reparto@gmail.com",
    "lat": 38.352473,
    "lng": 16.0166379,
    "geocode_status": "OK",
    "geocode_formatted": "89029 Taurianova, Metropolitan City of Reggio Calabria, Italy"
  },
  {
    "id": "7161b332fd71",
    "name": "OSPEDALE BEATO ANGELO",
    "address": "Italia CALABRIA 87041 ACRI Via Ippocrate CS",
    "city": "ACRI",
    "province": "CS",
    "region": "CALABRIA",
    "phone": "0984 913305",
    "email": "anicoletti1958@libero.it",
    "lat": 39.4909952,
    "lng": 16.388898,
    "geocode_status": "OK",
    "geocode_formatted": "Via Ippocrate, 87041 Acri CS, Italy"
  },
  {
    "id": "58cb6243c9a7",
    "name": "PRESIDIO OSPEDALIERO",
    "address": "Italia CALABRIA 87062 CARIATI Via Nazionale CS",
    "city": "CARIATI",
    "province": "CS",
    "region": "CALABRIA",
    "phone": "0983 941262",
    "email": "vincenzo.lettieri@aspcs.it",
    "lat": 39.508281,
    "lng": 16.933699,
    "geocode_status": "OK",
    "geocode_formatted": "Via Nazionale, 87062 Cariati CS, Italy"
  },
  {
    "id": "582d5e8f6d5a",
    "name": "AZIENDA OSPEDALIERA A. PUGLIESE-CIACCIO",
    "address": "Italia CALABRIA 88100 CATANZARO Viale Pio X 83 CZ",
    "city": "CATANZARO",
    "province": "CZ",
    "region": "CALABRIA",
    "phone": "0961 883280",
    "email": "nefrologia@aocz.it",
    "lat": 38.9202449,
    "lng": 16.5823473,
    "geocode_status": "OK",
    "geocode_formatted": "Viale Pio X, 83, 88100 Catanzaro CZ, Italy"
  },
  {
    "id": "8ecbc99c5b5f",
    "name": "POLICLINICO UNIVERSITARIO MATER DOMINI",
    "address": "Italia CALABRIA 88100 CATANZARO Via Tommaso Campanella 10 CZ",
    "city": "CATANZARO",
    "province": "CZ",
    "region": "CALABRIA",
    "phone": "0961 3647170",
    "email": "nefrologiacz@gmail.com",
    "lat": 38.912959,
    "lng": 16.5694587,
    "geocode_status": "OK",
    "geocode_formatted": "Viale Tommaso Campanella, 115, 88100 Catanzaro CZ, Italy"
  },
  {
    "id": "75f807fa56f6",
    "name": "POLIAMBULATORI",
    "address": "Italia CALABRIA 88100 CATANZARO LIDO Viale Crotone CZ",
    "city": "CATANZARO LIDO",
    "province": "CZ",
    "region": "CALABRIA",
    "phone": "0961 33825",
    "email": "mazzuca.elena@gmail.com",
    "lat": 38.83157,
    "lng": 16.6308299,
    "geocode_status": "OK",
    "geocode_formatted": "Viale Crotone, 214, 88100 Catanzaro CZ, Italy"
  },
  {
    "id": "4988fe9e0204",
    "name": "OSPEDALE SAN BIAGIO",
    "address": "Italia CALABRIA 88064 CHIARAVALLE CENTRALE Via Mario Ceravolo CZ",
    "city": "CHIARAVALLE CENTRALE",
    "province": "CZ",
    "region": "CALABRIA",
    "phone": "0967 999151",
    "email": "dialisichiaravalle@libero.it",
    "lat": 38.6819846,
    "lng": 16.4184663,
    "geocode_status": "OK",
    "geocode_formatted": "Via M .Ceravolo, 88064 Chiaravalle Centrale CZ, Italy"
  },
  {
    "id": "49f8774a2a07",
    "name": "AZIENDA OSPEDALIERA DELL' ANNUNZIATA",
    "address": "Italia CALABRIA 87100 COSENZA Via Migliori 1 CS",
    "city": "COSENZA",
    "province": "CS",
    "region": "CALABRIA",
    "phone": "0984 681513",
    "email": "t.papalia@aocs.it",
    "lat": 39.2932296,
    "lng": 16.250595,
    "geocode_status": "OK",
    "geocode_formatted": "Via Felice Migliori, 1, 87100 Cosenza CS, Italy"
  },
  {
    "id": "548077b2fa6b",
    "name": "OSPEDALE CIVILE DI LOCRI",
    "address": "Italia CALABRIA 89044 LOCRI Contrada Verga RC",
    "city": "LOCRI",
    "province": "RC",
    "region": "CALABRIA",
    "phone": "0964 399397",
    "email": "placidoorlando@tiscali.it",
    "lat": 38.2303461,
    "lng": 16.2433715,
    "geocode_status": "OK",
    "geocode_formatted": "Contrada Verga, 89044 Locri RC, Italy"
  },
  {
    "id": "3850326a506d",
    "name": "AZIENDA SANITARIA PROVINCIALE",
    "address": "Italia CALABRIA 87100 COSENZA Piazza Amendola 1 CS",
    "city": "COSENZA",
    "province": "CS",
    "region": "CALABRIA",
    "phone": "0984 893364",
    "email": "anicoletti1958@libero.it",
    "lat": 39.2909348,
    "lng": 16.2533274,
    "geocode_status": "OK",
    "geocode_formatted": "Piazza Giovanni Amendola, 1, 87100 Cosenza CS, Italy"
  },
  {
    "id": "37f7601b00c9",
    "name": "OSPEDALE SAN GIOVANNI DI DIO",
    "address": "Italia CALABRIA 88900 CROTONE Largo Bologna 11 KR",
    "city": "CROTONE",
    "province": "KR",
    "region": "CALABRIA",
    "phone": "0962 20829",
    "email": "sebastiano.greco@asp.crotone.it",
    "lat": 39.0785908,
    "lng": 17.1180997,
    "geocode_status": "OK",
    "geocode_formatted": "Via Bologna, 88900 Crotone KR, Italy"
  },
  {
    "id": "1419a88e8edb",
    "name": "PRESIDIO OSPEDALIERO",
    "address": "Italia CALABRIA 87022 CETRARO Via Porto Localita' Testa CS",
    "city": "CETRARO",
    "province": "CS",
    "region": "CALABRIA",
    "phone": "0982 977200",
    "email": "dialisiacri@aspcs.it",
    "lat": 39.5293186,
    "lng": 15.9178552,
    "geocode_status": "OK",
    "geocode_formatted": "Via Porto, 87022 Cetraro Marina CS, Italy"
  },
  {
    "id": "9e598f1e5daf",
    "name": "PRESIDIO OSPEDALIERO",
    "address": "Italia CALABRIA 88046 LAMEZIA TERME Via A. Perugini 9 CZ",
    "city": "LAMEZIA TERME",
    "province": "CZ",
    "region": "CALABRIA",
    "phone": "0968 208522",
    "email": "mauriziogr.gullo@virgilio.it",
    "lat": 38.9584526,
    "lng": 16.3022345,
    "geocode_status": "OK",
    "geocode_formatted": "Via Sen. Arturo Perugini, 9, 88046 Lamezia Terme CZ, Italy"
  },
  {
    "id": "2904a63d226c",
    "name": "POLIAMBULATORIO",
    "address": "Italia CALABRIA 87032 AMANTEA Via Santa Maria CS",
    "city": "AMANTEA",
    "province": "CS",
    "region": "CALABRIA",
    "phone": "0982 491220",
    "email": "dialisiamantea@aspcs.it",
    "lat": 39.1249065,
    "lng": 16.0785808,
    "geocode_status": "OK",
    "geocode_formatted": "Via S. Maria, 87032 Amantea CS, Italy"
  },
  {
    "id": "109091798047",
    "name": "AMBULATORIO EMODIALISI NEPHROCARE - SODIAL",
    "address": "Italia CAMPANIA 80126 NAPOLI Via Risorgimento 65 - Soccavo NA",
    "city": "NAPOLI",
    "province": "NA",
    "region": "CAMPANIA",
    "phone": "081 7679422",
    "email": "sodial.clinics-it@nephrocare.com",
    "lat": 40.8462533,
    "lng": 14.2064084,
    "geocode_status": "OK",
    "geocode_formatted": "Via Risorgimento, 65, 80126 Napoli NA, Italy"
  },
  {
    "id": "3ebd53f467b2",
    "name": "CE.PI.DIAL. AMBULATORIO DI EMODIALISI",
    "address": "Italia CAMPANIA 80035 NOLA Strada Statale 7bis 81 NA",
    "city": "NOLA",
    "province": "NA",
    "region": "CAMPANIA",
    "phone": "081 5125745",
    "email": "nefrocentercepidial@libero.it",
    "lat": 40.9329081,
    "lng": 14.5132756,
    "geocode_status": "OK",
    "geocode_formatted": "SS7bis, 81, 80035 Nola NA, Italy"
  },
  {
    "id": "207e6b075f63",
    "name": "OSPEDALE SANTA MARIA DELLA PIETA'",
    "address": "Italia CAMPANIA 80035 NOLA Via Del Seminario 1 NA",
    "city": "NOLA",
    "province": "NA",
    "region": "CAMPANIA",
    "phone": "081 8223284/11",
    "email": "or.areanolana.nefrologia@aslnapoli3sud.it",
    "lat": 40.92481799999999,
    "lng": 14.54128,
    "geocode_status": "OK",
    "geocode_formatted": "Via della Repubblica, 7, 80035 Nola NA, Italy"
  },
  {
    "id": "0fb6975c7274",
    "name": "AMBULATORIO DIALISI DIALNEFRO SRL",
    "address": "Italia CAMPANIA 84015 NOCERA SUPERIORE Via Petrone 28 SA",
    "city": "NOCERA SUPERIORE",
    "province": "SA",
    "region": "CAMPANIA",
    "phone": "081 5141656",
    "email": "dialnefro@alice.it",
    "lat": 40.7387956,
    "lng": 14.6819493,
    "geocode_status": "OK",
    "geocode_formatted": "Via Petrone, 84015 Nocera Superiore SA, Italy"
  },
  {
    "id": "b794a15abb20",
    "name": "POLICLINICO FEDERICO II",
    "address": "Italia CAMPANIA 80131 NAPOLI Via Pansini 5 NA",
    "city": "NAPOLI",
    "province": "NA",
    "region": "CAMPANIA",
    "phone": "081 7462625",
    "email": "ambulatoriotrapiantirene.aou@unina.it",
    "lat": 40.8668084,
    "lng": 14.2208779,
    "geocode_status": "OK",
    "geocode_formatted": "Via Sergio Pansini, 5, 80131 Napoli NA, Italy"
  },
  {
    "id": "1181117c0a08",
    "name": "AMBULATORIO EMODIALISI NEPHROCARE - EX OLIDIAL",
    "address": "Italia CAMPANIA 84020 OLIVETO CITRA Contrada Ponte Oliveto, 25 SA",
    "city": "OLIVETO CITRA",
    "province": "SA",
    "region": "CAMPANIA",
    "phone": "0828 995175",
    "email": "olidial.clinics-it@nephrocare.com",
    "lat": 40.69226159999999,
    "lng": 15.2492432,
    "geocode_status": "OK",
    "geocode_formatted": "Contrada Ponte Oliveto, 25, 84020 Ponte Oliveto-bagni SA, Italy"
  },
  {
    "id": "4460942387a0",
    "name": "AMBULATORIO DIALISI CI.MA.SA.",
    "address": "Italia CAMPANIA 80045 POMPEI Via Colle San Bartolomeo 50 NA",
    "city": "POMPEI",
    "province": "NA",
    "region": "CAMPANIA",
    "phone": "081 8639640/08",
    "email": "cimasa@cimasadialisi.it",
    "lat": 40.7476187,
    "lng": 14.4948504,
    "geocode_status": "OK",
    "geocode_formatted": "Via Colle S. Bartolomeo, 50, 80045 Pompei NA, Italy"
  },
  {
    "id": "1d10a43fe80a",
    "name": "ASL SA 1 P.O. UMBERTO I",
    "address": "Italia CAMPANIA 84014 NOCERA INFERIORE Via A. De Nicola 1 SA",
    "city": "NOCERA INFERIORE",
    "province": "SA",
    "region": "CAMPANIA",
    "phone": "081 9213261",
    "email": "a.romano@aslsalerno.it",
    "lat": 40.7430151,
    "lng": 14.6428897,
    "geocode_status": "OK",
    "geocode_formatted": "Via Giacomo Matteotti, 14, 84014 Nocera Inferiore SA, Italy"
  },
  {
    "id": "8deac8ccf0bd",
    "name": "CENTRO EMODIALISI ATELLANO",
    "address": "Italia CAMPANIA 81030 ORTA DI ATELLA Via G. Rossini 38 CE",
    "city": "ORTA DI ATELLA",
    "province": "CE",
    "region": "CAMPANIA",
    "phone": "081 5021130",
    "email": "dialisiatellano@alice.it",
    "lat": 40.9609149,
    "lng": 14.2776383,
    "geocode_status": "OK",
    "geocode_formatted": "Via Gioacchino Rossini, 38, 81030 Orta di Atella CE, Italy"
  },
  {
    "id": "b7c405167189",
    "name": "OSPEDALE AVE GRATIA PLENA",
    "address": "Italia CAMPANIA 81016 PIEDIMONTE MATESE Via Matese CE",
    "city": "PIEDIMONTE MATESE",
    "province": "CE",
    "region": "CAMPANIA",
    "phone": "0823 544203",
    "email": "dialisi.piedimonte@aslcaserta.it",
    "lat": 41.3551182,
    "lng": 14.366835,
    "geocode_status": "OK",
    "geocode_formatted": "Piazza Annunziata, 81016 Piedimonte Matese CE, Italy"
  },
  {
    "id": "a3f46c7af024",
    "name": "CENTRO EMODIALISI POGGIOMARINO",
    "address": "Italia CAMPANIA 80040 POGGIOMARINO Via Tenente Losco 8 NA",
    "city": "POGGIOMARINO",
    "province": "NA",
    "region": "CAMPANIA",
    "phone": "081 8652350",
    "email": "emodialisi.poggiomar@libero.it",
    "lat": 40.8013595,
    "lng": 14.5409475,
    "geocode_status": "OK",
    "geocode_formatted": "Via Tenente Losco, 8, 80040 Poggiomarino NA, Italy"
  },
  {
    "id": "6ff3640b7177",
    "name": "OSPEDALE L. CURTO, POLLA E SANT' ARSENIO",
    "address": "Italia CAMPANIA 84035 POLLA Via Luigi Curto SA",
    "city": "POLLA",
    "province": "SA",
    "region": "CAMPANIA",
    "phone": "0975 373361",
    "email": "nefrologia-dialisi@tiscali.it",
    "lat": 40.5166104,
    "lng": 15.4979787,
    "geocode_status": "OK",
    "geocode_formatted": "Via Luigi Curto, 84035 Polla SA, Italy"
  },
  {
    "id": "b86038c8ce16",
    "name": "AMBULATORIO NEFROLOGIA ED EMODIALISI NEPHROCARE S.P.A.",
    "address": "Italia CAMPANIA 84035 POLLA Via Annia 2 SA",
    "city": "POLLA",
    "province": "SA",
    "region": "CAMPANIA",
    "phone": "0975 390130",
    "email": "dianoval.clinics-it@nephrocare.com",
    "lat": 40.5246745,
    "lng": 15.4940835,
    "geocode_status": "OK",
    "geocode_formatted": "Via Annia, 2, 84035 Polla SA, Italy"
  },
  {
    "id": "3f1e2dca540c",
    "name": "AMBULATORIO NEPHROCARE - NEDIAL NAPOLI",
    "address": "Italia CAMPANIA 80142 NAPOLI Via Polveriera, 41b(P.zza Nazionale) NA",
    "city": "NAPOLI",
    "province": "NA",
    "region": "CAMPANIA",
    "phone": "081 7511120",
    "email": "nedialnapoli.clinics-it@nephrocare.com",
    "lat": 40.8555633,
    "lng": 14.2722001,
    "geocode_status": "OK",
    "geocode_formatted": "Vico Polveriera, 41, 80141 Napoli NA, Italy"
  },
  {
    "id": "cb530c9bd9d8",
    "name": "AMBULATORIO DI EMODIALISI",
    "address": "Italia CAMPANIA 80038 POMIGLIANO D'ARCO Via Nazionale Delle Puglie 46 NA",
    "city": "POMIGLIANO D'ARCO",
    "province": "NA",
    "region": "CAMPANIA",
    "phone": "081 8845901",
    "email": "info@dialcenter.it",
    "lat": 40.9075154,
    "lng": 14.3752975,
    "geocode_status": "OK",
    "geocode_formatted": "Via Nazionale delle Puglie, 46, 80038 Pomigliano d'Arco NA, Italy"
  },
  {
    "id": "a89bcae99f45",
    "name": "AMBULATORIO DIALISI DIDA S.R.L.",
    "address": "Italia CAMPANIA 80135 NAPOLI Via Scala Montesanto 5 NA",
    "city": "NAPOLI",
    "province": "NA",
    "region": "CAMPANIA",
    "phone": "081 5495923",
    "email": "emodida@libero.it",
    "lat": 40.8470738,
    "lng": 14.2434717,
    "geocode_status": "OK",
    "geocode_formatted": "Via Scala A Montesanto, 5, 80135 Napoli NA, Italy"
  },
  {
    "id": "210c8da63b17",
    "name": "AMBULATORIO DIALISI NEPHROCARE",
    "address": "Italia CAMPANIA 80038 POMIGLIANO D'ARCO Via Passariello 129 NA",
    "city": "POMIGLIANO D'ARCO",
    "province": "NA",
    "region": "CAMPANIA",
    "phone": "081 8037439",
    "email": "cercos.clinics-it@fmc-ag.com",
    "lat": 40.9063834,
    "lng": 14.4001875,
    "geocode_status": "OK",
    "geocode_formatted": "Via Passariello, 129, 80038 Pomigliano d'Arco NA, Italy"
  },
  {
    "id": "ca9e4f491ffe",
    "name": "AMBULATORIO EMODIALISI NEPHROCARE - REPUBBLICHE MARINARE",
    "address": "Italia CAMPANIA 80146 NAPOLI Via delle Repubbliche Marinare, 124/128 NA",
    "city": "NAPOLI",
    "province": "NA",
    "region": "CAMPANIA",
    "phone": "081 7528411",
    "email": "repubblichemarinare.clinics-it@fmc-ag.com",
    "lat": 40.842866,
    "lng": 14.3085147,
    "geocode_status": "OK",
    "geocode_formatted": "Via delle Repubbliche Marinare, 124/128, 80147 Napoli NA, Italy"
  },
  {
    "id": "71c632803fb6",
    "name": "OSPEDALE ANTONIO CARDARELLI",
    "address": "Italia CAMPANIA 80131 NAPOLI Via Antonio Cardarelli, 9 NA",
    "city": "NAPOLI",
    "province": "NA",
    "region": "CAMPANIA",
    "phone": "081 7473411/3417/4012",
    "email": "olga.credendino@aocardarelli.it",
    "lat": 40.8656196,
    "lng": 14.2245564,
    "geocode_status": "OK",
    "geocode_formatted": "Pad E primo piano maxillo, Via Antonio Cardarelli, 9, 80131 Napoli NA, Italy"
  },
  {
    "id": "2503191edb2a",
    "name": "OSPEDALE COTUGNO",
    "address": "Italia CAMPANIA 80131 NAPOLI Via Gaetano Quagliariello 54 NA",
    "city": "NAPOLI",
    "province": "NA",
    "region": "CAMPANIA",
    "phone": "081 5908285/294",
    "email": "nefrocotugno@libero.it",
    "lat": 40.8701763,
    "lng": 14.2137926,
    "geocode_status": "OK",
    "geocode_formatted": "Via Gaetano Quagliariello, 54, 80131 Napoli NA, Italy"
  },
  {
    "id": "1e2c00a1162f",
    "name": "OSPEDALE MONALDI",
    "address": "Italia CAMPANIA 80131 NAPOLI Via Leonardo Bianchi NA",
    "city": "NAPOLI",
    "province": "NA",
    "region": "CAMPANIA",
    "phone": "081 7065169/2490/5256",
    "email": "pietrotassinario@virgilio.it",
    "lat": 40.8697407,
    "lng": 14.2104789,
    "geocode_status": "OK",
    "geocode_formatted": "Via Leonardo Bianchi, 80131 Napoli NA, Italy"
  },
  {
    "id": "0d7134c56dd7",
    "name": "OSPEDALE DEI PELLEGRINI",
    "address": "Italia CAMPANIA 80134 NAPOLI Via Portamedina Alla Pignasecca 41 NA",
    "city": "NAPOLI",
    "province": "NA",
    "region": "CAMPANIA",
    "phone": "081 2543324/67/3569",
    "email": "nefrologia.pellegrini@aslnapoli1centro.it",
    "lat": 40.8470071,
    "lng": 14.2466987,
    "geocode_status": "OK",
    "geocode_formatted": "Via Portamedina alla Pignasecca, 41, 80134 Napoli NA, Italy"
  },
  {
    "id": "a4a9266bcdfb",
    "name": "OSPEDALE S. MARIA DEGLI INCURABILI",
    "address": "Italia CAMPANIA 80138 NAPOLI Via Maria Longo 50 NA",
    "city": "NAPOLI",
    "province": "NA",
    "region": "CAMPANIA",
    "phone": "081 2549409/9426/9405",
    "email": "nefrologiaincurabili@gmail.com",
    "lat": 40.8543859,
    "lng": 14.2547882,
    "geocode_status": "OK",
    "geocode_formatted": "Via Maria Longo, 50, 80138 Napoli NA, Italy"
  },
  {
    "id": "1d1098970435",
    "name": "CAPODICHINO AMBULATORIO DI EMODIALISI",
    "address": "Italia CAMPANIA 80144 NAPOLI Via Filippo Maria Briganti n. 506 NA",
    "city": "NAPOLI",
    "province": "NA",
    "region": "CAMPANIA",
    "phone": "081 7512828",
    "email": "nefrocapodichino@nefrocenter.it",
    "lat": 40.8741866,
    "lng": 14.2772748,
    "geocode_status": "OK",
    "geocode_formatted": "Via Filippo Maria Briganti, 506, 80144 Napoli NA, Italy"
  },
  {
    "id": "04ca8710074b",
    "name": "BLU E ROSSO AMBULATORIO EMODIALISI",
    "address": "Italia CAMPANIA 80126 NAPOLI Via C. Scherillo \\8  - Soccavo NA",
    "city": "NAPOLI",
    "province": "NA",
    "region": "CAMPANIA",
    "phone": "081 7675373",
    "email": "stefania.buglione@fmc-ag.com",
    "lat": 40.8476341,
    "lng": 14.2015861,
    "geocode_status": "OK",
    "geocode_formatted": "Via Canonico Giovanni Scherillo, 8, 80126 Napoli NA, Italy"
  },
  {
    "id": "115609f85959",
    "name": "AMBULATORIO EMODIALISI NEPHROCARE - VOMERO",
    "address": "Italia CAMPANIA 80127 NAPOLI Via Annella di Massimo, 39/41 NA",
    "city": "NAPOLI",
    "province": "NA",
    "region": "CAMPANIA",
    "phone": "081 5603267",
    "email": "vomero.clinics-it@nephrocare.com",
    "lat": 40.8467116,
    "lng": 14.2269065,
    "geocode_status": "OK",
    "geocode_formatted": "Via Annella di Massimo, 39/41, 80128 Napoli NA, Italy"
  },
  {
    "id": "71c632803fb6",
    "name": "OSPEDALE ANTONIO CARDARELLI",
    "address": "Italia CAMPANIA 80131 NAPOLI Via Antonio Cardarelli, 9 NA",
    "city": "NAPOLI",
    "province": "NA",
    "region": "CAMPANIA",
    "phone": "081 7472958",
    "email": "palinei@outlook.it",
    "lat": 40.8656196,
    "lng": 14.2245564,
    "geocode_status": "OK"
  },
  {
    "id": "2dc78d1c053e",
    "name": "CENTRO EMODIALISI KIDNEY  SRL",
    "address": "Italia CAMPANIA 80126 NAPOLI Via Cintia Parco San Paolo 39 E/F NA",
    "city": "NAPOLI",
    "province": "NA",
    "region": "CAMPANIA",
    "phone": "081 7674499",
    "email": "kidneysrl@libero.it",
    "lat": 40.8366994,
    "lng": 14.1894253,
    "geocode_status": "OK",
    "geocode_formatted": "Via Cintia, 39 E/F, 80126 Napoli NA, Italy"
  },
  {
    "id": "1bb982742ea5",
    "name": "AMBULATORIO EMODIALISI CEDIAL",
    "address": "Italia CAMPANIA 81036 SAN CIPRIANO D'AVERSA Via Vico Giambattista 16 CE",
    "city": "SAN CIPRIANO D'AVERSA",
    "province": "CE",
    "region": "CAMPANIA",
    "phone": "081 8925576",
    "email": "cedial.srl@alice.it",
    "lat": 41.000399,
    "lng": 14.1226455,
    "geocode_status": "OK",
    "geocode_formatted": "Via Giovan Battista Vico, 16, 81036 San Cipriano d'Aversa CE, Italy"
  },
  {
    "id": "45d7e601208c",
    "name": "CASA DI CURA CLINICA POSILLIPO",
    "address": "Italia CAMPANIA 80123 NAPOLI Via Posillipo 168 NA",
    "city": "NAPOLI",
    "province": "NA",
    "region": "CAMPANIA",
    "phone": "081 5751537",
    "email": "emodialcenter@nephrocenter.it",
    "lat": 40.8064793,
    "lng": 14.2035678,
    "geocode_status": "OK",
    "geocode_formatted": "Via Posillipo, 172, 80123 Napoli NA, Italy"
  },
  {
    "id": "335caa26144a",
    "name": "CENTRO DIALISI DIAL SISTEM",
    "address": "Italia CAMPANIA 84098 PONTECAGNANO FAIANO Via Italia 40 SA",
    "city": "PONTECAGNANO FAIANO",
    "province": "SA",
    "region": "CAMPANIA",
    "phone": "089 386523",
    "email": "dialsistem@cimasadialisi.it",
    "lat": 40.6441489,
    "lng": 14.876707,
    "geocode_status": "OK",
    "geocode_formatted": "Corso Italia, 40, 84098 Pontecagnano Faiano SA, Italy"
  },
  {
    "id": "514dc1c37024",
    "name": "AMBULATORIO EMODIALISI NEPHROCARE - ENNE E",
    "address": "Italia CAMPANIA 80131 NAPOLI Via Pietro Castellino, 141B  III Lotto parco Ceas NA",
    "city": "NAPOLI",
    "province": "NA",
    "region": "CAMPANIA",
    "phone": "081 5452655",
    "email": "enne.e.clinics-it@nephrocare.com",
    "lat": 40.8581097,
    "lng": 14.225409,
    "geocode_status": "OK",
    "geocode_formatted": "Via Pietro Castellino, 141, 80131 Napoli NA, Italy"
  },
  {
    "id": "3a81ca61cc6c",
    "name": "AMBULATORIO DI EMODIALISI EURODIAL",
    "address": "Italia CAMPANIA 80131 NAPOLI Via Quagliarello 35/E NA",
    "city": "NAPOLI",
    "province": "NA",
    "region": "CAMPANIA",
    "phone": "081 5451068",
    "email": "eurodial@nefrocenter.it",
    "lat": 40.8665771,
    "lng": 14.2162494,
    "geocode_status": "OK",
    "geocode_formatted": "Via Gaetano Quagliariello, 35, 80131 Napoli NA, Italy"
  },
  {
    "id": "19a85ce97b13",
    "name": "AMBULATORIO DI NEFROLOGIE ED EMODIALISI",
    "address": "Italia CAMPANIA 80059 VILLARICCA Via Enrico Fermi 59 NA",
    "city": "VILLARICCA",
    "province": "NA",
    "region": "CAMPANIA",
    "phone": "081 8946652",
    "email": "emocev_1949@libero.it",
    "lat": 40.9204018,
    "lng": 14.1960177,
    "geocode_status": "OK",
    "geocode_formatted": "Via Enrico Fermi, 59, 80010 Villaricca NA, Italy"
  },
  {
    "id": "c3fc802698e5",
    "name": "AMBULATORIO EMODIALISI NEPHROCARE - FANUS",
    "address": "Italia CAMPANIA 80122 NAPOLI Viale Maria Cristina di Savoia, 39/41  NA",
    "city": "NAPOLI",
    "province": "NA",
    "region": "CAMPANIA",
    "phone": "081 2486241",
    "email": "fanus.ruesch.clinics-it@nephrocare.com",
    "lat": 40.8369989,
    "lng": 14.2195866,
    "geocode_status": "OK",
    "geocode_formatted": "Viale Maria Cristina di Savoia, 39/41, 80122 Napoli NA, Italy"
  },
  {
    "id": "a90e364be7c1",
    "name": "CENTRO EMODIALISI INTERNAZIONALE SRL",
    "address": "Italia CAMPANIA 80122 NAPOLI Via Orazio 2 NA",
    "city": "NAPOLI",
    "province": "NA",
    "region": "CAMPANIA",
    "phone": "081 7611460",
    "email": "emomed@libero.it",
    "lat": 40.8270322,
    "lng": 14.219001,
    "geocode_status": "OK",
    "geocode_formatted": "Via Orazio, 2, 80122 Napoli NA, Italy"
  },
  {
    "id": "a287a3e5c9d6",
    "name": "CAPODIMONTE AMBULATORIO DI EMODIALISI",
    "address": "Italia CAMPANIA 80136 NAPOLI C.so Amedeo di Savoia 210 - Parco Vesta NA",
    "city": "NAPOLI",
    "province": "NA",
    "region": "CAMPANIA",
    "phone": "081 7410851",
    "email": "nefrocapodimonte@libero.it",
    "lat": 40.8621826,
    "lng": 14.2492036,
    "geocode_status": "OK",
    "geocode_formatted": "Corso Amedeo di Savoia, 210, 80136 Napoli NA, Italy"
  },
  {
    "id": "06976f7cce30",
    "name": "AMBULATORIO EMODIALISI",
    "address": "Italia CAMPANIA 81057 TEANO Largo Croci  CE",
    "city": "TEANO",
    "province": "CE",
    "region": "CAMPANIA",
    "phone": "0823 875126",
    "email": "doctordg@libero.it",
    "lat": 41.2543044,
    "lng": 14.0650934,
    "geocode_status": "OK",
    "geocode_formatted": "Piazza Unità D'Italia, 81057 Teano CE, Italy"
  },
  {
    "id": "a8bdaf148795",
    "name": "AMBULATORIO DIALISI TIRRENO",
    "address": "Italia CAMPANIA 84073 SAPRI Via Carlo Alberto 22 SA",
    "city": "SAPRI",
    "province": "SA",
    "region": "CAMPANIA",
    "phone": "0973 392393",
    "email": "musflo2004@libero.it",
    "lat": 40.074087,
    "lng": 15.628735,
    "geocode_status": "OK",
    "geocode_formatted": "Via Carlo Alberto, 22, 84073 Sapri SA, Italy"
  },
  {
    "id": "131e37d8c7a2",
    "name": "AMBULATORIO EMODIALISI \"TRADES\"",
    "address": "Italia CAMPANIA 84087 SARNO Via Emanuele 38/C - Trav. Turner 44 SA",
    "city": "SARNO",
    "province": "SA",
    "region": "CAMPANIA",
    "phone": "081 5137358",
    "email": "dialisitrades@email.it",
    "lat": 40.7427056,
    "lng": 14.6404302,
    "geocode_status": "OK",
    "geocode_formatted": "Corso Vittorio Emanuele II, 38, 84087 Sarno SA, Italy"
  },
  {
    "id": "f82e4f3f40a5",
    "name": "OSPEDALE M. SCARLATO",
    "address": "Italia CAMPANIA 84018 SCAFATI Via Passanti 2 SA",
    "city": "SCAFATI",
    "province": "SA",
    "region": "CAMPANIA",
    "phone": "081 5356467",
    "email": "ar.torre@aslsalerno.it",
    "lat": 40.754451,
    "lng": 14.525257,
    "geocode_status": "OK",
    "geocode_formatted": "Via Passanti Scafati, 2, 84018 Scafati SA, Italy"
  },
  {
    "id": "c6c2f17c563b",
    "name": "AMBULATORIO DI EMODIALISI",
    "address": "Italia CAMPANIA 84018 SCAFATI Corso Trieste 31 SA",
    "city": "SCAFATI",
    "province": "SA",
    "region": "CAMPANIA",
    "phone": "081 8638506",
    "email": "soreben@cimasadialisi.it",
    "lat": 40.751623,
    "lng": 14.5277078,
    "geocode_status": "OK",
    "geocode_formatted": "Via Trieste, 31, 84018 Scafati SA, Italy"
  },
  {
    "id": "50be4d57300b",
    "name": "AMBULATORIO NEFROLOGIA E DIALISI NEPHROCARE - MALPIGHI",
    "address": "Italia CAMPANIA 80144 SECONDIGLIANO Traversa Privata Riccio, 64/72 NA",
    "city": "SECONDIGLIANO",
    "province": "NA",
    "region": "CAMPANIA",
    "phone": "081 5437232",
    "email": "malpighi.clinics-it@nephrocare.com",
    "lat": 40.8999814,
    "lng": 14.2552596,
    "geocode_status": "OK",
    "geocode_formatted": "Via Privata Ricci, 64/72, 80144 Napoli NA, Italy"
  },
  {
    "id": "5cec8b88a655",
    "name": "EMODIALISI CEDIAL S.R.L.",
    "address": "Italia CAMPANIA 81037 SESSA AURUNCA Via Appia  CE",
    "city": "SESSA AURUNCA",
    "province": "CE",
    "region": "CAMPANIA",
    "phone": "0823 936499",
    "email": "cedial@virgilio.it",
    "lat": 41.2261581,
    "lng": 13.9349365,
    "geocode_status": "OK",
    "geocode_formatted": "SS7, 1, 81037 Sessa Aurunca CE, Italy"
  },
  {
    "id": "aadb25556c8e",
    "name": "A.O.U. SAN GIOVANNI DI DIO E RUGGI D’ARAGONA",
    "address": "Italia CAMPANIA 84131 SALERNO Via San Leonardo SA",
    "city": "SALERNO",
    "province": "SA",
    "region": "CAMPANIA",
    "phone": "089 673079",
    "email": "paride.derosa@sangiovannieruggi.it",
    "lat": 40.64893379999999,
    "lng": 14.8290545,
    "geocode_status": "OK",
    "geocode_formatted": "Via San Leonardo, 84131 Salerno SA, Italy"
  },
  {
    "id": "fabf830d2df5",
    "name": "CENTRO MEDICO E DI EMODIALISI SEIRONOS",
    "address": "Italia CAMPANIA 80067 SORRENTO Rivolo Sant' Antonio 5 NA",
    "city": "SORRENTO",
    "province": "NA",
    "region": "CAMPANIA",
    "phone": "081 8781422",
    "email": "seironos@cimasadialisi.it",
    "lat": 40.6218611,
    "lng": 14.3705258,
    "geocode_status": "OK",
    "geocode_formatted": "Via Rivolo S.Antonio, 5, 80067 Sorrento NA, Italy"
  },
  {
    "id": "d2d33cccfaa1",
    "name": "POLIAMBULATORIO",
    "address": "Italia CAMPANIA 80065 SANT'AGNELLO Via  Mariano Lauro 1 NA",
    "city": "SANT'AGNELLO",
    "province": "NA",
    "region": "CAMPANIA",
    "phone": "081 5331405/1485",
    "email": "frarus@inwind.it",
    "lat": 40.632082,
    "lng": 14.3984205,
    "geocode_status": "OK",
    "geocode_formatted": "Via Mariano Lauro, 1, 80065 Sant'Agnello NA, Italy"
  },
  {
    "id": "a188baa578b5",
    "name": "AMBULATORIO DIALISI MERIDIAL C/O CASA DI CURA COBELLIS",
    "address": "Italia CAMPANIA 84078 VALLO DELLA LUCANIA Via Nazionale - Contrada Badia SA",
    "city": "VALLO DELLA LUCANIA",
    "province": "SA",
    "region": "CAMPANIA",
    "phone": "0974 75888",
    "email": "musflo2004@libero.it",
    "lat": 40.23135449999999,
    "lng": 15.2431672,
    "geocode_status": "OK",
    "geocode_formatted": "C.da Badia, 84078 Vallo della Lucania SA, Italy"
  },
  {
    "id": "354ec18e47c9",
    "name": "CENTRO DIALISI NEPHRART S.R.L.",
    "address": "Italia CAMPANIA 81059 VAIRANO PATENORA Via Risorgimento, 1 CE",
    "city": "VAIRANO PATENORA",
    "province": "CE",
    "region": "CAMPANIA",
    "phone": "0823 988072",
    "email": "centrodialisinephrart@gmail.com",
    "lat": 41.3136409,
    "lng": 14.1085309,
    "geocode_status": "OK",
    "geocode_formatted": "Via Risorgimento, 1, 81058 Vairano Scalo CE, Italy"
  },
  {
    "id": "864c090c01b6",
    "name": "AMBULATORIO DIALISI NEPHROCARE - DIALTORRE",
    "address": "Italia CAMPANIA 80059 TORRE DEL GRECO Via Nuova Trecase 109 NA",
    "city": "TORRE DEL GRECO",
    "province": "NA",
    "region": "CAMPANIA",
    "phone": "081 8832900",
    "email": "dialtorre.clinics-it@nephrocare.com",
    "lat": 40.7721884,
    "lng": 14.4229857,
    "geocode_status": "OK",
    "geocode_formatted": "Via Nuova Trecase, 109, 80059 Torre del Greco NA, Italy"
  },
  {
    "id": "23d1c5acc923",
    "name": "OSPEDALE SANTOBONO DI NAPOLI",
    "address": "Italia CAMPANIA 80129 NAPOLI Via M. Fiore 6 NA",
    "city": "NAPOLI",
    "province": "NA",
    "region": "CAMPANIA",
    "phone": "081 2205799/796/616/614",
    "email": "c.pecoraro@santobonopausilipon.it",
    "lat": 40.848998,
    "lng": 14.2318033,
    "geocode_status": "OK",
    "geocode_formatted": "Via Mario Fiore, 6, 80129 Napoli NA, Italy"
  },
  {
    "id": "ac6cba0c5d55",
    "name": "CENTRO EMODIALISI SAN GIORGIO",
    "address": "Italia CAMPANIA 80059 TORRE DEL GRECO Viale Dei Pini 15 NA",
    "city": "TORRE DEL GRECO",
    "province": "NA",
    "region": "CAMPANIA",
    "phone": "081 8811394",
    "email": "sangiorgiotorre@cimasadialisi.it",
    "lat": 40.8128875,
    "lng": 14.3424512,
    "geocode_status": "OK",
    "geocode_formatted": "Viale dei Pini, 15, 80055 Portici NA, Italy"
  },
  {
    "id": "45300015e1e0",
    "name": "NEPHROCARE-NEFROSAL",
    "address": "Italia CAMPANIA 84080 LANCUSI - FISCIANO Via F.lli Napoli 79/81 SA",
    "city": "LANCUSI - FISCIANO",
    "province": "SA",
    "region": "CAMPANIA",
    "phone": "089 955586",
    "email": "nefrosal.clinics-it@nephrocare.com",
    "lat": 40.76047,
    "lng": 14.787072,
    "geocode_status": "OK",
    "geocode_formatted": "Via Fratelli Napoli, 79/81, 84084 Fisciano SA, Italy"
  },
  {
    "id": "562e46c590e0",
    "name": "AMBULATORIO DI EMODIALISI CENTRO AZZURRO",
    "address": "Italia CAMPANIA 80058 TORRE ANNUNZIATA Corso Umberto I 45 NA",
    "city": "TORRE ANNUNZIATA",
    "province": "NA",
    "region": "CAMPANIA",
    "phone": "081 5365031",
    "email": "centroazzurro@cimasadialisi.it",
    "lat": 40.7567028,
    "lng": 14.4427603,
    "geocode_status": "OK",
    "geocode_formatted": "Corso Umberto I, 45, 80058 Torre Annunziata NA, Italy"
  },
  {
    "id": "d4cbdc6b0b5a",
    "name": "PRESIDIO OSPEDALIERO \"AGOSTINO LANDOLFI\"",
    "address": "Italia CAMPANIA 83029 SOLOFRA Via Melito AV",
    "city": "SOLOFRA",
    "province": "AV",
    "region": "CAMPANIA",
    "phone": "0825 530366",
    "email": "nefrosolofra@libero.it",
    "lat": 40.8366788,
    "lng": 14.8378248,
    "geocode_status": "OK",
    "geocode_formatted": "Via Melito, 83029 Solofra AV, Italy"
  },
  {
    "id": "e3a504c56dba",
    "name": "AMBULATORIO DIALISI POLISAN",
    "address": "Italia CAMPANIA 81020 SAN NICOLA LA STRADA Via Nenni 10 CE",
    "city": "SAN NICOLA LA STRADA",
    "province": "CE",
    "region": "CAMPANIA",
    "phone": "0823 458161",
    "email": "emodialisipolisan@alice.it",
    "lat": 41.0485034,
    "lng": 14.3238611,
    "geocode_status": "OK",
    "geocode_formatted": "Via Pietro Nenni, 10, 81020 San Nicola la Strada CE, Italy"
  },
  {
    "id": "8f4deb4299c0",
    "name": "AMBULATORIO DIALISI NEPHROCARE - NEDIAL",
    "address": "Italia CAMPANIA 80078 POZZUOLI Via Montenuovo Licola Patria 60 NA",
    "city": "POZZUOLI",
    "province": "NA",
    "region": "CAMPANIA",
    "phone": "081 5267612/41005",
    "email": "nedial.clinics-it@nephrocare.com",
    "lat": 40.8355001,
    "lng": 14.0960253,
    "geocode_status": "OK",
    "geocode_formatted": "Via Patria Montenuovo Licola, 60, 80078 Pozzuoli NA, Italy"
  },
  {
    "id": "831a51d07e5a",
    "name": "AMBULATORIO DIALISI NEPHROCARE - CEA",
    "address": "Italia CAMPANIA 80010 QUARTO Via Crocillo 113/115 NA",
    "city": "QUARTO",
    "province": "NA",
    "region": "CAMPANIA",
    "phone": "081 8762949",
    "email": "cea.clinics-It@fmc-ag.com",
    "lat": 40.8830351,
    "lng": 14.136584,
    "geocode_status": "OK",
    "geocode_formatted": "Via Crocillo, 113/115, 80010 Quarto NA, Italy"
  },
  {
    "id": "34ea44c9933e",
    "name": "AMBULATORIO NEFROLOGIA ED EMODIALISI NEPHROCARE PH - ROCCADASPIDE",
    "address": "SS 116, 357, 84069 VILLAGGIO BREZZA, (SA), CAMPANIA, Italia",
    "city": "VILLAGGIO BREZZA",
    "province": "SA",
    "region": "CAMPANIA",
    "phone": "0828 725393",
    "email": "roccadaspide.clicnics-it@nephrocare.com",
    "lat": 40.4602828,
    "lng": 15.0719704
  },
  {
    "id": "fd9f336eccfe",
    "name": "A.O.U. SAN GIOVANNI DI DIO E RUGGI D'ARAGONA",
    "address": "Italia CAMPANIA 84131 SALERNO Via San Leonardo SA",
    "city": "SALERNO",
    "province": "SA",
    "region": "CAMPANIA",
    "phone": "089 672881",
    "email": "giuseppe.palladino@sangiovannieruggi.it",
    "lat": 40.64893379999999,
    "lng": 14.8290545,
    "geocode_status": "OK",
    "geocode_formatted": "Via San Leonardo, 84131 Salerno SA, Italy"
  },
  {
    "id": "6fb85f6ca76a",
    "name": "CENTRO DIALISI NEPHROCARE SALERNO",
    "address": "Italia CAMPANIA 84131 SALERNO Via San Leonardo 60 SA",
    "city": "SALERNO",
    "province": "SA",
    "region": "CAMPANIA",
    "phone": "089 798630",
    "email": "salerno.clinics-it@fmc-ag.com",
    "lat": 40.6499404,
    "lng": 14.820838,
    "geocode_status": "OK",
    "geocode_formatted": "Via San Leonardo, 60, 84131 Salerno SA, Italy"
  },
  {
    "id": "cfdd0e2cedf3",
    "name": "EMODIAL AMBULATORIO DI EMODIALISI",
    "address": "Italia CAMPANIA 84124 SALERNO Via Renato De Martino 22 SA",
    "city": "SALERNO",
    "province": "SA",
    "region": "CAMPANIA",
    "phone": "089 842376/251463",
    "email": "nefrocenteremodial@libero.it",
    "lat": 40.6825682,
    "lng": 14.7694361,
    "geocode_status": "OK",
    "geocode_formatted": "Via Renato de Martino, 22, 84124 Salerno SA, Italy"
  },
  {
    "id": "7a88836bc54d",
    "name": "OSPEDALE AVE GRATIA PLENA",
    "address": "Italia CAMPANIA 81027 SAN FELICE A CANCELLO Via Roma CE",
    "city": "SAN FELICE A CANCELLO",
    "province": "CE",
    "region": "CAMPANIA",
    "phone": "0823 803329",
    "email": "giuseppe.iulianello@aslcaserta.it",
    "lat": 41.0209037,
    "lng": 14.492321,
    "geocode_status": "OK",
    "geocode_formatted": "Via Roma, 18, 81021 Arienzo CE, Italy"
  },
  {
    "id": "be9adcc351ff",
    "name": "OSPEDALE IMMACOLATA - SAPRI",
    "address": "Italia CAMPANIA 84073 SAPRI Via Verdi SA",
    "city": "SAPRI",
    "province": "SA",
    "region": "CAMPANIA",
    "phone": "0973 609215",
    "email": "piosapri.nefrologia@aslsalerno.it",
    "lat": 40.0705849,
    "lng": 15.6193218,
    "geocode_status": "OK",
    "geocode_formatted": "Via Giuseppe Verdi, 84073 Sapri SA, Italy"
  },
  {
    "id": "0d8d1eb1ee7d",
    "name": "CENTRO EMODIALISI VESUVIANA AMBULATORIO DI EMODIALISI",
    "address": "Italia CAMPANIA 80047 SAN GIUSEPPE VESUVIANO Via Aielli snc NA",
    "city": "SAN GIUSEPPE VESUVIANO",
    "province": "NA",
    "region": "CAMPANIA",
    "phone": "081 3384437/4438",
    "email": "nefrocentervesuviana@libero.it",
    "lat": 40.8327243,
    "lng": 14.5002345,
    "geocode_status": "OK",
    "geocode_formatted": "Via Aielli, 109, 80047 San Giuseppe Vesuviano NA, Italy"
  },
  {
    "id": "55307cf789a4",
    "name": "PRESIDIO OSPEDALIERO \"GABRIELE CRISCUOLI\"",
    "address": "Italia CAMPANIA 83054 SANT'ANGELO DEI LOMBARDI Via San Pietro AV",
    "city": "SANT'ANGELO DEI LOMBARDI",
    "province": "AV",
    "region": "CAMPANIA",
    "phone": "0827 277356/357/343",
    "email": "pasqualeguastaferro@libero.it",
    "lat": 40.9304128,
    "lng": 15.1819691,
    "geocode_status": "OK",
    "geocode_formatted": "Via S. Rocco, 83054 Sant'Angelo dei Lombardi AV, Italy"
  },
  {
    "id": "4ef13bdf5df8",
    "name": "AMBULATORIO DI EMODIALISI DO.MA.",
    "address": "Italia CAMPANIA 80030 SAN PAOLO BELSITO Via Provinciale per Palma Campania N. 3/5 NA",
    "city": "SAN PAOLO BELSITO",
    "province": "NA",
    "region": "CAMPANIA",
    "phone": "081 8295910/5105877",
    "email": "info@ambulatoriodoma.it",
    "lat": 40.9050961,
    "lng": 14.5619006,
    "geocode_status": "OK",
    "geocode_formatted": "Via Provinciale per Palma Campania, 3, 80030 Liveri NA, Italy"
  },
  {
    "id": "eff784278133",
    "name": "AMBULATORIO DIALISI I.SA.MA",
    "address": "Italia CAMPANIA 84010 SANT' EGIDIO DEL MONTALBINO Via R. Falcone 5/8 SA",
    "city": "SANT' EGIDIO DEL MONTALBINO",
    "province": "SA",
    "region": "CAMPANIA",
    "phone": "081 5153030",
    "email": "info@gruppoisama.it",
    "lat": 40.6847369,
    "lng": 14.6354631,
    "geocode_status": "OK",
    "geocode_formatted": "84010 SA, Italy"
  },
  {
    "id": "67b8b6ff6081",
    "name": "OSPEDALE MELORIO",
    "address": "Italia CAMPANIA 81055 SANTA MARIA CAPUA VETERE Via Melorio 30 CE",
    "city": "SANTA MARIA CAPUA VETERE",
    "province": "CE",
    "region": "CAMPANIA",
    "phone": "0823 891348",
    "email": "smozzillo@tin.it",
    "lat": 41.0768729,
    "lng": 14.2625848,
    "geocode_status": "OK",
    "geocode_formatted": "S. Giuseppe Melorio, Ospedale S. Giuseppe Melorio, V. Vito Nicola Melorio, 30, 81055 Ospedale, CE, Italy"
  },
  {
    "id": "090732831df3",
    "name": "AMBULATORIO DIALISI CEDIAL S.R.L.",
    "address": "Italia CAMPANIA 81055 SANTA MARIA CAPUA VETERE Via Giotto Rione I.A.C.P. - Centro Civico CE",
    "city": "SANTA MARIA CAPUA VETERE",
    "province": "CE",
    "region": "CAMPANIA",
    "phone": "0823 810548",
    "email": "cedial@virgilio.it",
    "lat": 41.0911094,
    "lng": 14.2458585,
    "geocode_status": "OK",
    "geocode_formatted": "Via Giotto, 81055 Santa Maria Capua Vetere CE, Italy"
  },
  {
    "id": "25a0ab0c0a1f",
    "name": "DIAL CAST AMBULATORIO DI EMODIALISI",
    "address": "Italia CAMPANIA 80050 SANTA MARIA LA CARITA' Via Petraro , 317 NA",
    "city": "SANTA MARIA LA CARITA'",
    "province": "NA",
    "region": "CAMPANIA",
    "phone": "081 19751030",
    "email": "dialcast@nefrocenter.it",
    "lat": 40.7179692,
    "lng": 14.5038658,
    "geocode_status": "OK",
    "geocode_formatted": "Via Petraro, 317, 80050 Santa Maria la Carità NA, Italy"
  },
  {
    "id": "11e472eb6c05",
    "name": "CENTRO EMODIALISI ERREDIAL",
    "address": "Italia CAMPANIA 82019 SANT'AGATA DEI GOTI Via Pennino - Trav. Mustilli 1 BN",
    "city": "SANT'AGATA DEI GOTI",
    "province": "BN",
    "region": "CAMPANIA",
    "phone": "0823 954130 - 0823 95411",
    "email": "erredial.info@gmail.com",
    "lat": 41.0873258,
    "lng": 14.4962599,
    "geocode_status": "OK",
    "geocode_formatted": "Via Pennino, 82019 Sant'Agata de' Goti BN, Italy"
  },
  {
    "id": "777cf324bc4c",
    "name": "CENTRO MEDICO GIUSEPPE MOSCATI",
    "address": "Italia CAMPANIA 80055 PORTICI Viale Leone 15/B NA",
    "city": "PORTICI",
    "province": "NA",
    "region": "CAMPANIA",
    "phone": "081 470919",
    "email": "dialisimoscati@centrogiuseppemoscati.it",
    "lat": 40.8204767,
    "lng": 14.3350077,
    "geocode_status": "OK",
    "geocode_formatted": "Viale Leone, 15/b, 80055 Portici NA, Italy"
  },
  {
    "id": "1eba579ae853",
    "name": "CENTRO EMODIALISI SAN GIORGIO",
    "address": "Italia CAMPANIA 80046 SAN GIORGIO A CREMANO Via E.A. Mario 15/25 NA",
    "city": "SAN GIORGIO A CREMANO",
    "province": "NA",
    "region": "CAMPANIA",
    "phone": "081 489879",
    "email": "sangiorgio@cimasadialisi.it",
    "lat": 40.8325656,
    "lng": 14.3336587,
    "geocode_status": "OK",
    "geocode_formatted": "Via E. A. Mario, 15, 80046 San Giorgio a Cremano NA, Italy"
  },
  {
    "id": "bffcb075cbc9",
    "name": "CENTRO EMODIALISI KIDNEY",
    "address": "Italia CAMPANIA 80020 CASAVATORE Via G. Marconi 78 NA",
    "city": "CASAVATORE",
    "province": "NA",
    "region": "CAMPANIA",
    "phone": "081 7374939",
    "email": "kidneysrl@libero.it",
    "lat": 40.89955320000001,
    "lng": 14.2771982,
    "geocode_status": "OK",
    "geocode_formatted": "Viale Guglielmo Marconi, 78, 80020 Casavatore NA, Italy"
  },
  {
    "id": "681cfc32ac05",
    "name": "OSPEDALI RIUNITI AREA STABIESE PRESIDIO SAN LEONARDO",
    "address": "Italia CAMPANIA 80053 CASTELLAMMARE DI STABIA Viale Europa 11 NA",
    "city": "CASTELLAMMARE DI STABIA",
    "province": "NA",
    "region": "CAMPANIA",
    "phone": "081 8729313/311/9324",
    "email": "nefrostabia@libero.it",
    "lat": 40.7060499,
    "lng": 14.488647,
    "geocode_status": "OK",
    "geocode_formatted": "Viale Europa, 11, 80053 Castellammare di Stabia NA, Italy"
  },
  {
    "id": "afd08d140e9c",
    "name": "CENTRO EMODIALISI PADRE PIO",
    "address": "Italia CAMPANIA 82100 BENEVENTO Via Valfortore 10 BN",
    "city": "BENEVENTO",
    "province": "BN",
    "region": "CAMPANIA",
    "phone": "0824 54886",
    "email": "emodialiasilapeccirella@gmail.com",
    "lat": 41.1390104,
    "lng": 14.7781803,
    "geocode_status": "OK",
    "geocode_formatted": "Via Valfortore, 10, 82100 Benevento BN, Italy"
  },
  {
    "id": "b8ff18ace190",
    "name": "AMBULATORIO DI NEFROLOGIA EMODIALISI",
    "address": "Italia CAMPANIA 80041 BOSCOREALE Via Oliva Luigi  27 NA",
    "city": "BOSCOREALE",
    "province": "NA",
    "region": "CAMPANIA",
    "phone": "081 8584662",
    "email": "dialisicentrodelta@libero.it",
    "lat": 40.7763848,
    "lng": 14.4804724,
    "geocode_status": "OK",
    "geocode_formatted": "Via Luigi Oliva, 27, 80041 Boscoreale NA, Italy"
  },
  {
    "id": "dc66ac5ae467",
    "name": "AMBULATORIO DI EMODIALISI",
    "address": "Italia CAMPANIA 80031 BRUSCIANO Via Liberta' 10 NA",
    "city": "BRUSCIANO",
    "province": "NA",
    "region": "CAMPANIA",
    "phone": "081 8862336",
    "email": "gestdial@cimasadialisi.it",
    "lat": 40.9203783,
    "lng": 14.4267766,
    "geocode_status": "OK",
    "geocode_formatted": "Via Libertà, 10, 80031 Brusciano NA, Italy"
  },
  {
    "id": "15473110d15d",
    "name": "CENTRO DIALISI DIALCA",
    "address": "Italia CAMPANIA 81013 CAIAZZO Via Cattabeni CE",
    "city": "CAIAZZO",
    "province": "CE",
    "region": "CAMPANIA",
    "phone": "0823 862464",
    "email": "nefrologia.dialca@gmail.com",
    "lat": 41.1772279,
    "lng": 14.3596814,
    "geocode_status": "OK",
    "geocode_formatted": "Via Giovan Battista Cattabeni, 65, 81013 Caiazzo CE, Italy"
  },
  {
    "id": "558b27b0bd78",
    "name": "CENTRO DIALISI CAPRI PRESSO OSPEDALE CAPILUPI",
    "address": "Italia CAMPANIA 80073 CAPRI Via Torina 2 NA",
    "city": "CAPRI",
    "province": "NA",
    "region": "CAMPANIA",
    "phone": "081 8381259",
    "email": "dir.san.capilupi@pec.aslna1centro.it",
    "lat": 40.5497488,
    "lng": 14.2367207,
    "geocode_status": "OK",
    "geocode_formatted": "Via Torina, 2, 80076 Capri NA, Italy"
  },
  {
    "id": "d6313cb554f1",
    "name": "AMBULATORIO DI  NEFROLOGIA E DIALISI  G. B. MORGAGNI SRL",
    "address": "Italia CAMPANIA 82100 BENEVENTO Via Avellino 49 BN",
    "city": "BENEVENTO",
    "province": "BN",
    "region": "CAMPANIA",
    "phone": "0824 311137/43814",
    "email": "info@centromorgagni.com",
    "lat": 41.1214921,
    "lng": 14.7909909,
    "geocode_status": "OK",
    "geocode_formatted": "Via Avellino, 49, 82100 Benevento BN, Italy"
  },
  {
    "id": "04197a67552d",
    "name": "CENTRO DIALISI RENART",
    "address": "Italia CAMPANIA 81022 CASAGIOVE Via Nazionale Appia Trav. Lenze 372 CE",
    "city": "CASAGIOVE",
    "province": "CE",
    "region": "CAMPANIA",
    "phone": "0823 493155",
    "email": "renartsrl@pec.it",
    "lat": 41.0736076,
    "lng": 14.2996316,
    "geocode_status": "OK",
    "geocode_formatted": "Via Nazionale Appia, 372, 81022 Casagiove CE, Italy"
  },
  {
    "id": "e47322c66137",
    "name": "D.I.A.M.",
    "address": "Italia CAMPANIA 81024 MADDALONI Via Ficucella 1 CE",
    "city": "MADDALONI",
    "province": "CE",
    "region": "CAMPANIA",
    "phone": "0823 401728",
    "email": "diam@nefrocenter.it",
    "lat": 41.0279603,
    "lng": 14.3748491,
    "geocode_status": "OK",
    "geocode_formatted": "Via Ficucella, 1, 81024 Maddaloni CE, Italy"
  },
  {
    "id": "ec78b2cf2143",
    "name": "AORN S.ANNA S.SEBASTIANO DI CASERTA",
    "address": "Italia CAMPANIA 81100 CASERTA Via Tescione 2 CE",
    "city": "CASERTA",
    "province": "CE",
    "region": "CAMPANIA",
    "phone": "0823 232379",
    "email": "ludovicadapice@alice.it",
    "lat": 41.0816142,
    "lng": 14.3314083,
    "geocode_status": "OK",
    "geocode_formatted": "Via Gennaro Tescione, 2, 81100 Caserta CE, Italy"
  },
  {
    "id": "101b1808a0de",
    "name": "IATREION EMODIALISI S.R.L.",
    "address": "Italia CAMPANIA 81100 CASERTA Via G.De Falco n.26 CE",
    "city": "CASERTA",
    "province": "CE",
    "region": "CAMPANIA",
    "phone": "0823 201708",
    "email": "nefrocenteriatreion@libero.it",
    "lat": 41.086011,
    "lng": 14.3383799,
    "geocode_status": "OK",
    "geocode_formatted": "Via Giuseppe de Falco, 26, 81100 Caserta CE, Italy"
  },
  {
    "id": "dbee96990374",
    "name": "AMBULATORIO DI NEFROLOGIA DIALISI",
    "address": "Italia CAMPANIA 80026 CASORIA Via Monte Rosa 1 NA",
    "city": "CASORIA",
    "province": "NA",
    "region": "CAMPANIA",
    "phone": "081 7573607",
    "email": "centrosanbiagio@libero.it",
    "lat": 40.9279084,
    "lng": 14.2965274,
    "geocode_status": "OK",
    "geocode_formatted": "Via Monte Rosa, 1, 80026 Casoria NA, Italy"
  },
  {
    "id": "81ca4e0d0627",
    "name": "CENTRO DI NEFROLOGIA E DIALISI CAMPANO",
    "address": "Italia CAMPANIA 80026 CASORIA Via Carlo Poerio Trav. Ferrara 5 NA",
    "city": "CASORIA",
    "province": "NA",
    "region": "CAMPANIA",
    "phone": "081 7583133",
    "email": "maria.romano@fmc-ag.com",
    "lat": 40.9065856,
    "lng": 14.2842001,
    "geocode_status": "OK",
    "geocode_formatted": "Via Carlo Poerio, 80026 Casoria NA, Italy"
  },
  {
    "id": "550d5e495e1a",
    "name": "AMBULATORIO DIALISI DIAL  GEST",
    "address": "Italia CAMPANIA 80026 CASORIA Via Mattia Ferrara 53 NA",
    "city": "CASORIA",
    "province": "NA",
    "region": "CAMPANIA",
    "phone": "081 5404577",
    "email": "dialgest@alice.it",
    "lat": 40.8997298,
    "lng": 14.2970011,
    "geocode_status": "OK",
    "geocode_formatted": "Via Mattia Ferrara, 53, 80026 Casoria NA, Italy"
  },
  {
    "id": "19f50484097f",
    "name": "AMBULATORIO EMODIALISI DIALIFE SRL",
    "address": "Italia CAMPANIA 80026 CASORIA Via Paolo Piccirillo 20 NA",
    "city": "CASORIA",
    "province": "NA",
    "region": "CAMPANIA",
    "phone": "081 7361951",
    "email": "dialife@libero.it",
    "lat": 40.9010227,
    "lng": 14.2910458,
    "geocode_status": "OK",
    "geocode_formatted": "Via Paolo Piccirillo, 20, 80026 Casoria NA, Italy"
  },
  {
    "id": "3ea8c64ebd4e",
    "name": "HELIOS S.R.L. - CENTRO DI NEFROLOGIA",
    "address": "Italia CAMPANIA 81043 CAPUA Via Aeroporto 12 CE",
    "city": "CAPUA",
    "province": "CE",
    "region": "CAMPANIA",
    "phone": "0823 622901",
    "email": "info@ambulatoriohelios.it",
    "lat": 41.112581,
    "lng": 14.197887,
    "geocode_status": "OK",
    "geocode_formatted": "V. Aeroporto, 12, 81043 Capua CE, Italy"
  },
  {
    "id": "03742e23f7ea",
    "name": "CASA DI CURA PRIVATA MALZONI VILLA DEI PLATANI SPA",
    "address": "Italia CAMPANIA 83100 AVELLINO Via Carmelo Errico, 2 AV",
    "city": "AVELLINO",
    "province": "AV",
    "region": "CAMPANIA",
    "phone": "0825 686514/518",
    "email": "nefrologia@malzoni.org",
    "lat": 40.9117914,
    "lng": 14.7749038,
    "geocode_status": "OK",
    "geocode_formatted": "Via Errico Carmelo, 2, 83100 Avellino AV, Italy"
  },
  {
    "id": "c3f74af1fe68",
    "name": "AMBULATORIO DIALISI CENDIAL",
    "address": "Italia CAMPANIA 80011 ACERRA Via Verdi 14 NA",
    "city": "ACERRA",
    "province": "NA",
    "region": "CAMPANIA",
    "phone": "081 5207963",
    "email": "dialisicendial@gmail.com",
    "lat": 40.9392918,
    "lng": 14.3672427,
    "geocode_status": "OK",
    "geocode_formatted": "Via Giuseppe Verdi, 14, 80011 Acerra NA, Italy"
  },
  {
    "id": "88a4debc352f",
    "name": "POLIDIAGNOSTICA SAN PIO X SRL",
    "address": "Italia CAMPANIA 80021 AFRAGOLA Via Sant' Antonio 24 NA",
    "city": "AFRAGOLA",
    "province": "NA",
    "region": "CAMPANIA",
    "phone": "081 8512134",
    "email": "dialisi.sanpioX@vesuvius-scarl.com",
    "lat": 40.9184159,
    "lng": 14.3071396,
    "geocode_status": "OK",
    "geocode_formatted": "Viale Sant'Antonio, 24, 80021 Afragola NA, Italy"
  },
  {
    "id": "0881afc9392e",
    "name": "ISTITUTO CLINICO MEDITERRANEO SPA",
    "address": "Italia CAMPANIA 84043 AGROPOLI Via Gian Battista Vico 3 SA",
    "city": "AGROPOLI",
    "province": "SA",
    "region": "CAMPANIA",
    "phone": "0974 853107",
    "email": "infodialisi@icmspa.it",
    "lat": 40.3469376,
    "lng": 14.9908132,
    "geocode_status": "OK",
    "geocode_formatted": "Via Gian Battista Vico, 84043 Agropoli SA, Italy"
  },
  {
    "id": "cae66f4cc0a6",
    "name": "NEPHROCARE OMNIADIAL",
    "address": "Italia CAMPANIA 84012 ANGRI Via Dei Goti 186/188 SA",
    "city": "ANGRI",
    "province": "SA",
    "region": "CAMPANIA",
    "phone": "081 947633",
    "email": "santo.vitiello@fmc-ag.com",
    "lat": 40.7316277,
    "lng": 14.5603608,
    "geocode_status": "OK",
    "geocode_formatted": "Via dei Goti, 186/188, 84012 Angri SA, Italy"
  },
  {
    "id": "d128ff24bdbb",
    "name": "OSPEDALE  DI  ARIANO IRPINO SANT'OTTONE FRANGIPANE",
    "address": "Italia CAMPANIA 83031 ARIANO IRPINO Corso Vittorio Emanuele 1 AV",
    "city": "ARIANO IRPINO",
    "province": "AV",
    "region": "CAMPANIA",
    "phone": "0825 877259/730",
    "email": "pinaromano@libero.it",
    "lat": 41.1480678,
    "lng": 15.0826926,
    "geocode_status": "OK",
    "geocode_formatted": "Corso Vittorio Emanuele, 1, 83031 Ariano Irpino AV, Italy"
  },
  {
    "id": "3a1b9cf18e05",
    "name": "CEDISAN AMBULATORIO DI EMODIALISI",
    "address": "Italia CAMPANIA 80022 ARZANO Via Ferrara 3 NA",
    "city": "ARZANO",
    "province": "NA",
    "region": "CAMPANIA",
    "phone": "081 5056188",
    "email": "nefrocentercedisan@libero.it",
    "lat": 40.9084552,
    "lng": 14.2619722,
    "geocode_status": "OK",
    "geocode_formatted": "Via Ferrara, 3, 80022 Arzano NA, Italy"
  },
  {
    "id": "cc442c3cf6aa",
    "name": "AZIENDA OSPEDALIERA FEDERICO II",
    "address": "Italia CAMPANIA 80131 NAPOLI Via S.Pansini 5 NA",
    "city": "NAPOLI",
    "province": "NA",
    "region": "CAMPANIA",
    "phone": "081 7462150/2612",
    "email": "iginio.difraia@unina.it",
    "lat": 40.8668084,
    "lng": 14.2208779,
    "geocode_status": "OK",
    "geocode_formatted": "Via Sergio Pansini, 5, 80131 Napoli NA, Italy"
  },
  {
    "id": "48ee4e70f0f1",
    "name": "CENTRO DIALYSIS CAPODICASA",
    "address": "Italia CAMPANIA 83100 AVELLINO Via Percesepe,2 - ang.Via San Tommaso 33 AV",
    "city": "AVELLINO",
    "province": "AV",
    "region": "CAMPANIA",
    "phone": "0825 72663",
    "email": "dialysissrl@virgilio.it",
    "lat": 40.9030586,
    "lng": 14.7994224,
    "geocode_status": "OK",
    "geocode_formatted": "Via S. Tommaso, 33, 83100 Avellino AV, Italy"
  },
  {
    "id": "ffbf29708b2b",
    "name": "AZIENDA OSPEDALIERA \"GAETANO RUMMO\"",
    "address": "Italia CAMPANIA 82100 BENEVENTO Via Dell' Angelo 1 BN",
    "city": "BENEVENTO",
    "province": "BN",
    "region": "CAMPANIA",
    "phone": "0824 57246/244/57476",
    "email": "nefrodialisi.bn@ao-rummo.it",
    "lat": 41.1302341,
    "lng": 14.7754263,
    "geocode_status": "OK",
    "geocode_formatted": "Via Gaetano Rummo, 82100 Benevento BN, Italy"
  },
  {
    "id": "9a12001b4527",
    "name": "OSPEDALE G. MOSCATI",
    "address": "Italia CAMPANIA 81031 AVERSA Via Santa Lucia 85 CE",
    "city": "AVERSA",
    "province": "CE",
    "region": "CAMPANIA",
    "phone": "081 5001522",
    "email": "pasquale.lamula@aslcaserta1.it",
    "lat": 40.97650609999999,
    "lng": 14.1960134,
    "geocode_status": "OK",
    "geocode_formatted": "Via Santa Lucia, 85, 81031 Aversa CE, Italy"
  },
  {
    "id": "b55a194f40be",
    "name": "OSPEDALE G. MOSCATI ASL CE 2",
    "address": "Italia CAMPANIA 81031 AVERSA Via Santa Lucia 85 CE",
    "city": "AVERSA",
    "province": "CE",
    "region": "CAMPANIA",
    "phone": "081 5001386-081 5001522",
    "email": "pasquale.lamula@aslcaserta1.it",
    "lat": 40.97650609999999,
    "lng": 14.1960134,
    "geocode_status": "OK",
    "geocode_formatted": "Via Santa Lucia, 85, 81031 Aversa CE, Italy"
  },
  {
    "id": "9f15f8cece40",
    "name": "NEFRODIAL S.R.L.",
    "address": "Italia CAMPANIA 81031 AVERSA Via Amendola 44 CE",
    "city": "AVERSA",
    "province": "CE",
    "region": "CAMPANIA",
    "phone": "815,031,172",
    "email": "nefrodialsrl@alice.it",
    "lat": 40.9639297,
    "lng": 14.2125626,
    "geocode_status": "OK",
    "geocode_formatted": "Via Giorgio Amendola, 44, 81031 Aversa CE, Italy"
  },
  {
    "id": "9426f11f529a",
    "name": "CENTRO DIALISI SE.AN",
    "address": "Italia CAMPANIA 81031 AVERSA Viale Della Liberta' 90 CE",
    "city": "AVERSA",
    "province": "CE",
    "region": "CAMPANIA",
    "phone": "081 5037349",
    "email": "seansrl@alice.it",
    "lat": 40.9803658,
    "lng": 14.2113111,
    "geocode_status": "OK",
    "geocode_formatted": "Viale della Libertà, 90, 81031 Aversa CE, Italy"
  },
  {
    "id": "41c52916760f",
    "name": "AMBULATORIO EMODIALISI SO.DA.V.",
    "address": "Italia CAMPANIA 81031 AVERSA Via Modigliani Bassa 52 CE",
    "city": "AVERSA",
    "province": "CE",
    "region": "CAMPANIA",
    "phone": "081 5044520",
    "email": "sodavdial@virgilio.it",
    "lat": 40.9667028,
    "lng": 14.2023044,
    "geocode_status": "OK",
    "geocode_formatted": "Via Amedeo Modigliani, 81031 Aversa CE, Italy"
  },
  {
    "id": "e0cfdf0dc86f",
    "name": "AMBULATORIO NEFROLOGIA E DIALISI NEPHROCARE S.P.A.",
    "address": "Italia CAMPANIA 84091 BATTIPAGLIA Via Inghilterra 1 SA",
    "city": "BATTIPAGLIA",
    "province": "SA",
    "region": "CAMPANIA",
    "phone": "0828 304149",
    "email": "renalcenter.clinics-it@nephrocare.com",
    "lat": 40.5994702,
    "lng": 14.9910728,
    "geocode_status": "OK",
    "geocode_formatted": "Viale Inghilterra, 1, 84091 Asi SA, Italy"
  },
  {
    "id": "860ac36e58e3",
    "name": "A.O.S.G. MOSCATI  OSPEDALE SAN GIUSEPPE MOSCATI",
    "address": "Italia CAMPANIA 83100 AVELLINO Contrada Amoretta AV",
    "city": "AVELLINO",
    "province": "AV",
    "region": "CAMPANIA",
    "phone": "0825 203254",
    "email": "info@aornmoscati.it",
    "lat": 40.9272976,
    "lng": 14.8006007,
    "geocode_status": "OK",
    "geocode_formatted": "Contrada Archi, 15, 83100 Avellino AV, Italy"
  },
  {
    "id": "5f2b4294de61",
    "name": "AMBULATORIO DI NEFROLOGIA E DIALISI",
    "address": "Italia CAMPANIA 83048 MONTELLA Via Ippolita Panico 7 AV",
    "city": "MONTELLA",
    "province": "AV",
    "region": "CAMPANIA",
    "phone": "0827 601596",
    "email": "dialisibartoli@alice.it",
    "lat": 40.8402055,
    "lng": 15.0156988,
    "geocode_status": "OK",
    "geocode_formatted": "Via Ippolita Panico, 7, 83048 Montella AV, Italy"
  },
  {
    "id": "5f9cd3e22264",
    "name": "AMBULATORIO DIALISI I.SA.MA.",
    "address": "Italia CAMPANIA 84010 MAIORI Via Ferriera Sant’Elia 1 SA",
    "city": "MAIORI",
    "province": "SA",
    "region": "CAMPANIA",
    "phone": "089 877397",
    "email": "info@gruppoisama.it",
    "lat": 40.6797928,
    "lng": 14.642568,
    "geocode_status": "OK",
    "geocode_formatted": "Via Ferriera Sant'Elia, 1, 84014 Pucara SA, Italy"
  },
  {
    "id": "57a9ee0a3eda",
    "name": "AMBULATORIO DI EMODIALISI GAMMA DIAL S.R.L.",
    "address": "Italia CAMPANIA 80016 MARANO DI NAPOLI Corso Mediterraneo 115 A NA",
    "city": "MARANO DI NAPOLI",
    "province": "NA",
    "region": "CAMPANIA",
    "phone": "081 7424544",
    "email": "gadial@alice.it",
    "lat": 40.9028619,
    "lng": 14.1826323,
    "geocode_status": "OK",
    "geocode_formatted": "Corso Mediterraneo, 115, 80016 Marano di Napoli NA, Italy"
  },
  {
    "id": "8ec2061b50e3",
    "name": "ADEM",
    "address": "Italia CAMPANIA 81025 MARCIANISE Viale Manzoni 13 CE",
    "city": "MARCIANISE",
    "province": "CE",
    "region": "CAMPANIA",
    "phone": "0823 823102",
    "email": "centro_adem@alice.it",
    "lat": 41.035544,
    "lng": 14.3170248,
    "geocode_status": "OK",
    "geocode_formatted": "Via Alessandro Manzoni, 13, 81025 Marcianise CE, Italy"
  },
  {
    "id": "1548b87d5c70",
    "name": "CENTRO DI EMODIALISI",
    "address": "Italia CAMPANIA 80030 MARIGLIANELLA Via Variante S.S. 7 Bis Km 45,500 NA",
    "city": "MARIGLIANELLA",
    "province": "NA",
    "region": "CAMPANIA",
    "phone": "081 8413900",
    "email": "info@almacenter.it",
    "lat": 40.9331211,
    "lng": 14.4346077,
    "geocode_status": "OK",
    "geocode_formatted": "SS7 Bis, Mariglianella NA, Italy"
  },
  {
    "id": "f245dc55e926",
    "name": "AZIENDA OSPEDALIERA UNIVERSITARIA FEDERICO II DI NAPOLI",
    "address": "Italia CAMPANIA 80131 NAPOLI Via Pansini 5 NA",
    "city": "NAPOLI",
    "province": "NA",
    "region": "CAMPANIA",
    "phone": "081 5666671",
    "email": "alessandra.penna@unicampania.it",
    "lat": 40.8668084,
    "lng": 14.2208779,
    "geocode_status": "OK",
    "geocode_formatted": "Via Sergio Pansini, 5, 80131 Napoli NA, Italy"
  },
  {
    "id": "8a7ab0dab6ec",
    "name": "CENTRO EMODIALISI AMBULATORIALE PRESSO LA DIAGNOSTICA MEDICA",
    "address": "Italia CAMPANIA 83013 MERCOGLIANO Via Nazionale 146 AV",
    "city": "MERCOGLIANO",
    "province": "AV",
    "region": "CAMPANIA",
    "phone": "0825 686513",
    "email": "dialisi@malzoni.org",
    "lat": 40.9065199,
    "lng": 14.7598893,
    "geocode_status": "OK",
    "geocode_formatted": "Via Nazionale, 146, 83013 Mercogliano AV, Italy"
  },
  {
    "id": "9d312fff7d64",
    "name": "AMBULATORIO DI NEFROLOGIA E DIALISI G. B. MORGAGNI SRL",
    "address": "Italia CAMPANIA 82100 BENEVENTO Via del Pomerio 3/7 BN",
    "city": "BENEVENTO",
    "province": "BN",
    "region": "CAMPANIA",
    "phone": "0824 311137/43814",
    "email": "info@centromorgagni.com",
    "lat": 41.1334023,
    "lng": 14.7759065,
    "geocode_status": "OK",
    "geocode_formatted": "Via del Pomerio, 3/7, 82100 Benevento BN, Italy"
  },
  {
    "id": "062f32e6e4c5",
    "name": "CENTRO MEDICO POLISPECIALISTICO",
    "address": "Italia CAMPANIA 81034 MONDRAGONE Via M.B. Greco 20/36 CE",
    "city": "MONDRAGONE",
    "province": "CE",
    "region": "CAMPANIA",
    "phone": "0823 978277",
    "email": "centro_medico_polisp@libero.it",
    "lat": 41.1105232,
    "lng": 13.8873653,
    "geocode_status": "OK",
    "geocode_formatted": "Via M. B. Greco, 20/36, 81034 Mondragone CE, Italy"
  },
  {
    "id": "7073dd461c5a",
    "name": "PRESIDIO OSPEDALIERO AMICO G. FUCITO",
    "address": "Italia CAMPANIA 84085 MERCATO SANSEVERINO Corso Umberto I SA",
    "city": "MERCATO SANSEVERINO",
    "province": "SA",
    "region": "CAMPANIA",
    "phone": "089 9925219/220",
    "email": "candida.iacuzzo@sangiovannieruggi.it",
    "lat": 40.7754438,
    "lng": 14.745823,
    "geocode_status": "OK",
    "geocode_formatted": "Corso Umberto I, 13/1, 84085 Mercato San Severino SA, Italy"
  },
  {
    "id": "8b9e2ed58fca",
    "name": "CENTRO EMODIALISI NEOREN",
    "address": "Italia CAMPANIA 82016 MONTESARCHIO Via Malepasso  BN",
    "city": "MONTESARCHIO",
    "province": "BN",
    "region": "CAMPANIA",
    "phone": "0824 831277",
    "email": "neoren@libero.it",
    "lat": 41.0633486,
    "lng": 14.6377713,
    "geocode_status": "OK",
    "geocode_formatted": "82016 Montesarchio, Province of Benevento, Italy"
  },
  {
    "id": "b89dc840231c",
    "name": "AMBULATO EMODIALISI NEPHROS C/O CASA DI CURA VILLA DEI FIORI",
    "address": "Italia CAMPANIA 80018 MUGNANO DI NAPOLI Corso Italia 110 NA",
    "city": "MUGNANO DI NAPOLI",
    "province": "NA",
    "region": "CAMPANIA",
    "phone": "081 7121162",
    "email": "info@nephros.it",
    "lat": 40.9109241,
    "lng": 14.1962816,
    "geocode_status": "OK",
    "geocode_formatted": "Corso Italia, 110, 80018 Mugnano di Napoli NA, Italy"
  },
  {
    "id": "30d791a73d05",
    "name": "CENTRO DI NEFROLOGIA & DIALISI CENTRO MEDICO VISAM SRL",
    "address": "Italia CAMPANIA 80018 MUGNANO DI NAPOLI Via Sacro Cuore 2 NA",
    "city": "MUGNANO DI NAPOLI",
    "province": "NA",
    "region": "CAMPANIA",
    "phone": "081 5714030",
    "email": "emodialisivisam@libero.it",
    "lat": 40.9081816,
    "lng": 14.2060038,
    "geocode_status": "OK",
    "geocode_formatted": "Via Sacro Cuore, 2, 80018 Mugnano di Napoli NA, Italy"
  },
  {
    "id": "74b803d0acc8",
    "name": "PRIMO POLICLINICO UNIVERSITARIO -CLINICA PEDIATRICA",
    "address": "Italia CAMPANIA 80138 NAPOLI Vico Luigi de Crecchio 4 NA",
    "city": "NAPOLI",
    "province": "NA",
    "region": "CAMPANIA",
    "phone": "081 5665458/5465",
    "email": "angela.lamanna@unina2.it",
    "lat": 40.8522282,
    "lng": 14.2533395,
    "geocode_status": "OK",
    "geocode_formatted": "Vico Luigi De Crecchio, 4, 80138 Napoli NA, Italy"
  },
  {
    "id": "3ca84ed05df2",
    "name": "AMBULATORIO EMODIALISI DEL PROF. DOMENICO  CIRILLO S.R.L.",
    "address": "Italia CAMPANIA 80053 CASTELLAMMARE DI STABIA Viale Europa 77 NA",
    "city": "CASTELLAMMARE DI STABIA",
    "province": "NA",
    "region": "CAMPANIA",
    "phone": "081 8726486",
    "email": "info@profdomenicocirillo.it",
    "lat": 40.6984191,
    "lng": 14.4882354,
    "geocode_status": "OK",
    "geocode_formatted": "Viale Europa, 77, 80053 Castellammare di Stabia NA, Italy"
  },
  {
    "id": "7b1a6c1451cd",
    "name": "CENTRO DIALISI VENODIAL",
    "address": "Italia CAMPANIA 84091 BATTIPAGLIA Via Belvedere 47/53 SA",
    "city": "BATTIPAGLIA",
    "province": "SA",
    "region": "CAMPANIA",
    "phone": "0828 673811",
    "email": "venodial@tiscali.it",
    "lat": 40.6148093,
    "lng": 14.9668248,
    "geocode_status": "OK",
    "geocode_formatted": "Via Belvedere, 47/53, 84091 Battipaglia SA, Italy"
  },
  {
    "id": "ce12b63b0a87",
    "name": "AMBULATORIO NEFROLOGIA E DIALISI NEPHROCARE - EX MIRABIAL",
    "address": "Italia CAMPANIA 83036 MIRABELLA ECLANO Via Gradifossi AV",
    "city": "MIRABELLA ECLANO",
    "province": "AV",
    "region": "CAMPANIA",
    "phone": "0825 449056",
    "email": "mirabial.clinics-it@nephrocare.com",
    "lat": 41.0428618,
    "lng": 14.9959878,
    "geocode_status": "OK",
    "geocode_formatted": "83036 Mirabella Eclano, Province of Avellino, Italy"
  },
  {
    "id": "a2a523764a14",
    "name": "NEPHROCARE CERCOLA",
    "address": "Italia CAMPANIA 80040 CERCOLA Via Valente 19 NA",
    "city": "CERCOLA",
    "province": "NA",
    "region": "CAMPANIA",
    "phone": "081 7332379",
    "email": "ruscosa.clinics-it@neprhoocare.com",
    "lat": 40.8524615,
    "lng": 14.3659508,
    "geocode_status": "OK",
    "geocode_formatted": "Via Valente, 19, 80040 Cercola NA, Italy"
  },
  {
    "id": "e043e1d68621",
    "name": "BETADIAL AMBULATORIO DI EMODIALISI",
    "address": "Italia CAMPANIA 84013 CAVA DE' TIRRENI Via XXV Luglio 160 SA",
    "city": "CAVA DE' TIRRENI",
    "province": "SA",
    "region": "CAMPANIA",
    "phone": "089 343712",
    "email": "nefrocenterbetadial@libero.it",
    "lat": 40.7192797,
    "lng": 14.6977995,
    "geocode_status": "OK",
    "geocode_formatted": "Via XXV Luglio, 160, 84013 Cava de' Tirreni SA, Italy"
  },
  {
    "id": "8a7ab0dab6ec",
    "name": "CENTRO EMODIALISI AMBULATORIALE PRESSO LA DIAGNOSTICA MEDICA",
    "address": "Italia CAMPANIA 83013 MERCOGLIANO Via Nazionale 146 AV",
    "city": "MERCOGLIANO",
    "province": "AV",
    "region": "CAMPANIA",
    "phone": "0825 686514/514",
    "email": "dialisi@malzoni.org",
    "lat": 40.9065199,
    "lng": 14.7598893,
    "geocode_status": "OK"
  },
  {
    "id": "85352f6b6ac0",
    "name": "AMBULATORIO EMODIALISI C.M.M.S.R.L.",
    "address": "Italia CAMPANIA 84013 CAVA DE' TIRRENI Via P. Santoriello 7 SA",
    "city": "CAVA DE' TIRRENI",
    "province": "SA",
    "region": "CAMPANIA",
    "phone": "089 345423-341792",
    "email": "info@centromedicocmm.it",
    "lat": 40.7174723,
    "lng": 14.7050605,
    "geocode_status": "OK",
    "geocode_formatted": "Via Pasquale Santoriello, 7, 84013 Cava de' Tirreni SA, Italy"
  },
  {
    "id": "f648b3062354",
    "name": "OSPEDALE MARIA SS ADDOLORATA",
    "address": "Italia CAMPANIA 84025 EBOLI Piazza Scuola Medicina Salernitana SA",
    "city": "EBOLI",
    "province": "SA",
    "region": "CAMPANIA",
    "phone": "0828 362212-431",
    "email": "nefrologiaeboli@libero.it",
    "lat": 40.6186539,
    "lng": 15.0500697,
    "geocode_status": "OK",
    "geocode_formatted": "Piazza Scuola Medica Salernitana, 84025 Eboli SA, Italy"
  },
  {
    "id": "9657607ed5b2",
    "name": "CENTRO DIALISI NEPHRON",
    "address": "Italia CAMPANIA 80056 ERCOLANO Via Fevolella 10/12 NA",
    "city": "ERCOLANO",
    "province": "NA",
    "region": "CAMPANIA",
    "phone": "081 7772282",
    "email": "nephron@tiscalinet.it",
    "lat": 40.8125414,
    "lng": 14.3541531,
    "geocode_status": "OK",
    "geocode_formatted": "Via Fevolella, 10/12, 80056 Ercolano NA, Italy"
  },
  {
    "id": "aa93bba896cf",
    "name": "CENTRO NEFROLOGICO POLISPECIALISTICO SRL",
    "address": "Italia CAMPANIA 80027 FRATTAMAGGIORE Via Genoino 67 NA",
    "city": "FRATTAMAGGIORE",
    "province": "NA",
    "region": "CAMPANIA",
    "phone": "081 8347881",
    "email": "cnp@nefrocenter.it",
    "lat": 40.9433722,
    "lng": 14.2714143,
    "geocode_status": "OK",
    "geocode_formatted": "Via Genoino, 67, 80027 Frattamaggiore NA, Italy"
  },
  {
    "id": "86076a529977",
    "name": "GRUPPO DIALISI CAMPANO AMBULATORIO DI EMODIALISI",
    "address": "Italia CAMPANIA 80027 FRATTAMAGGIORE Via Genoino 71 NA",
    "city": "FRATTAMAGGIORE",
    "province": "NA",
    "region": "CAMPANIA",
    "phone": "081 8351615",
    "email": "gdc@nefrocenter.it",
    "lat": 40.9436593,
    "lng": 14.2708677,
    "geocode_status": "OK",
    "geocode_formatted": "Via Genoino, 71, 80027 Frattamaggiore NA, Italy"
  },
  {
    "id": "cbc4601f871e",
    "name": "CENTRO DIALISI GRAGNANO DIA GRA SRL",
    "address": "Italia CAMPANIA 80054 GRAGNANO Via Castellammare 85/87 - Parco degli Dei NA",
    "city": "GRAGNANO",
    "province": "NA",
    "region": "CAMPANIA",
    "phone": "081 8014044",
    "email": "dialisi@cmo-srl.com",
    "lat": 40.6955527,
    "lng": 14.5003708,
    "geocode_status": "OK",
    "geocode_formatted": "Via Castellammare, 85/87, 80054 Gragnano NA, Italy"
  },
  {
    "id": "7516aafd121b",
    "name": "OSPEDALE ANNA RIZZOLI",
    "address": "Italia CAMPANIA 80076 ISCHIA - PORTO Via A. De Luca 20 NA",
    "city": "ISCHIA - PORTO",
    "province": "NA",
    "region": "CAMPANIA",
    "phone": "081 18840395/0394/499",
    "email": "nefrologia.ospedaleischia@aslnapoli2nord.it",
    "lat": 40.7502673,
    "lng": 13.8958666,
    "geocode_status": "OK",
    "geocode_formatted": "Via Fundera, 2, 80076 Lacco Ameno NA, Italy"
  },
  {
    "id": "8c59cc118f0d",
    "name": "AMBULATORIO DIALISI LUDIAL",
    "address": "Italia CAMPANIA 81030 LUSCIANO Via Dante Alighieri 39 CE",
    "city": "LUSCIANO",
    "province": "CE",
    "region": "CAMPANIA",
    "phone": "081 8146288",
    "email": "ludial@nefrocenter.it",
    "lat": 40.9639378,
    "lng": 14.1923191,
    "geocode_status": "OK",
    "geocode_formatted": "Via Dante Alighieri, 39, 81030 Lusciano CE, Italy"
  },
  {
    "id": "535b1cc78b81",
    "name": "VILLA SANT' ANDREA S.R.L.",
    "address": "Italia CAMPANIA 81024 MADDALONI Via Mastrantuono 98 CE",
    "city": "MADDALONI",
    "province": "CE",
    "region": "CAMPANIA",
    "phone": "0823 408585",
    "email": "villasandrea@nephrocenter.it",
    "lat": 41.0250225,
    "lng": 14.3712494,
    "geocode_status": "OK",
    "geocode_formatted": "Via Mastrantuono, 98, 81024 Maddaloni CE, Italy"
  },
  {
    "id": "5dc7e9564e0c",
    "name": "CENTRO EMODIALISI IRPINA S.R.L.",
    "address": "Italia CAMPANIA 83035 GROTTAMINARDA Via Umberto Nobile, 4 AV",
    "city": "GROTTAMINARDA",
    "province": "AV",
    "region": "CAMPANIA",
    "phone": "0825 446628",
    "email": "emodialisiirpina@tiscali.it",
    "lat": 41.0691066,
    "lng": 15.0641223,
    "geocode_status": "OK",
    "geocode_formatted": "Via Umberto Nobile, 4, 83035 Grottaminarda AV, Italy"
  },
  {
    "id": "62d01c882591",
    "name": "OSPEDALE S. MARIA BIANCA DI MIRANDOLA",
    "address": "Italia EMILIA-ROMAGNA 41037 MIRANDOLA Via Antonio Fogazzaro, 6 MO",
    "city": "MIRANDOLA",
    "province": "MO",
    "region": "EMILIA-ROMAGNA",
    "phone": "0535 602249/513/516",
    "email": "d.bonucchi@ausl.mo.it",
    "lat": 44.8833809,
    "lng": 11.0647378,
    "geocode_status": "OK",
    "geocode_formatted": "Via Antonio Fogazzaro, 6, 41037 Mirandola MO, Italy"
  },
  {
    "id": "fbd0459eda3a",
    "name": "OSPEDALE GUGLIELMO DA SALICETO PIACENZA",
    "address": "Italia EMILIA-ROMAGNA 29121 PIACENZA Via Taverna 43 PC",
    "city": "PIACENZA",
    "province": "PC",
    "region": "EMILIA-ROMAGNA",
    "phone": "0523 302168/67/70/72",
    "email": "s.lascani@ausl.pc.it",
    "lat": 45.0544838,
    "lng": 9.6830748,
    "geocode_status": "OK",
    "geocode_formatted": "Via Taverna Giuseppe, 49, 29121 Piacenza PC, Italy"
  },
  {
    "id": "2f94cab6093a",
    "name": "OSPEDALE DI PAVULLO NEL FRIGNANO",
    "address": "Italia EMILIA-ROMAGNA 41026 PAVULLO NEL FRIGNANO Viale dei Martiri 63 MO",
    "city": "PAVULLO NEL FRIGNANO",
    "province": "MO",
    "region": "EMILIA-ROMAGNA",
    "phone": "0536 29222",
    "email": "r.bonacci@ausl.mo.it",
    "lat": 44.3347321,
    "lng": 10.8347715,
    "geocode_status": "OK",
    "geocode_formatted": "Viale Martiri, 63, 41026 Pavullo Nel Frignano MO, Italy"
  },
  {
    "id": "1dbc81f8772d",
    "name": "OSPEDALI RIUNITI",
    "address": "Italia EMILIA-ROMAGNA 43126 PARMA Via Gramsci 14 PR",
    "city": "PARMA",
    "province": "PR",
    "region": "EMILIA-ROMAGNA",
    "phone": "0521 702006",
    "email": "umaggiore@ao.pr.it",
    "lat": 44.8021952,
    "lng": 10.3096379,
    "geocode_status": "OK",
    "geocode_formatted": "Viale Antonio Gramsci, 14, 43126 Parma PR, Italy"
  },
  {
    "id": "b8bda3a30988",
    "name": "CASA DELLA SALUTE PINTOR-MOLINETTO",
    "address": "Italia EMILIA-ROMAGNA 43125 PARMA Via Pintor 1 PR",
    "city": "PARMA",
    "province": "PR",
    "region": "EMILIA-ROMAGNA",
    "phone": "0521 393628",
    "email": "rbarani@ausl.pr.it",
    "lat": 44.7960985,
    "lng": 10.3197484,
    "geocode_status": "OK",
    "geocode_formatted": "Via Pintor Giaime, 1, 43125 Parma PR, Italy"
  },
  {
    "id": "813ac5c50425",
    "name": "OSPEDALE DI PARMA",
    "address": "Italia EMILIA-ROMAGNA 43126 PARMA Via Antonio Gramsci 14 - Ala Sud PR",
    "city": "PARMA",
    "province": "PR",
    "region": "EMILIA-ROMAGNA",
    "phone": "0521 702020/3225",
    "email": "enrico.fiaccadori@unipr.it",
    "lat": 44.8006724,
    "lng": 10.3084285,
    "geocode_status": "OK",
    "geocode_formatted": "Viale Antonio Gramsci, 14, 43126 Parma PR, Italy"
  },
  {
    "id": "bfd2421f4eaf",
    "name": "POLIAMBULATORIO",
    "address": "Italia EMILIA-ROMAGNA 41045 MONTEFIORINO Via Casa Volpe 3 MO",
    "city": "MONTEFIORINO",
    "province": "MO",
    "region": "EMILIA-ROMAGNA",
    "phone": "0536 965787/0536309599",
    "email": "n.ruggi@ausl.mo.it",
    "lat": 44.3567607,
    "lng": 10.622215,
    "geocode_status": "OK",
    "geocode_formatted": "Via Casa Volpe, 3, 41045 Montefiorino MO, Italy"
  },
  {
    "id": "7a3d28173a79",
    "name": "OSPEDALE FRANCHINI",
    "address": "Italia EMILIA-ROMAGNA 42027 MONTECCHIO EMILIA Via Barilla 16 RE",
    "city": "MONTECCHIO EMILIA",
    "province": "RE",
    "region": "EMILIA-ROMAGNA",
    "phone": "0522 860316",
    "email": "info.dialisimontecchio@ausl.re.it",
    "lat": 44.7061984,
    "lng": 10.4497201,
    "geocode_status": "OK",
    "geocode_formatted": "Str. Barilla, 16, 42122 Montecchio Emilia RE, Italy"
  },
  {
    "id": "e94de850dd65",
    "name": "AZIENDA OSPEDALIERA POLICLINICO",
    "address": "Italia EMILIA-ROMAGNA 41124 MODENA Via Del Pozzo 71 MO",
    "city": "MODENA",
    "province": "MO",
    "region": "EMILIA-ROMAGNA",
    "phone": "059 4224108",
    "email": "villani.annarita@policlinico.mo.it",
    "lat": 44.6354255,
    "lng": 10.9426112,
    "geocode_status": "OK",
    "geocode_formatted": "Via del Pozzo, 71, 41125 Modena MO, Italy"
  },
  {
    "id": "613e7ba47608",
    "name": "OSPEDALE CAPPELLI",
    "address": "Italia EMILIA-ROMAGNA 47025 MERCATO SARACENO via Decio Raggi 16 FC",
    "city": "MERCATO SARACENO",
    "province": "FC",
    "region": "EMILIA-ROMAGNA",
    "phone": "0547 90464",
    "email": "dialisi.mercato.ce@auslromagna.it",
    "lat": 43.956563,
    "lng": 12.195065,
    "geocode_status": "OK",
    "geocode_formatted": "Via Decio Raggi, 16, 47025 Mercato Saraceno FC, Italy"
  },
  {
    "id": "426f0891333a",
    "name": "POLICLINICO  DI MODENA",
    "address": "Italia EMILIA-ROMAGNA 41124 MODENA Via Del Pozzo 71 MO",
    "city": "MODENA",
    "province": "MO",
    "region": "EMILIA-ROMAGNA",
    "phone": "059 4222473/5110/4009",
    "email": "villani.annarita@policlinico.mo.it",
    "lat": 44.6354255,
    "lng": 10.9426112,
    "geocode_status": "OK",
    "geocode_formatted": "Via del Pozzo, 71, 41125 Modena MO, Italy"
  },